CODIGO,CATEGORIA,NOMBRE,MUNICIPIO,DEPARTAMENTO,AO,ELEVACION,LONGITUD,LATITUD,ENE,FEB,MAR,ABR,MAY,JUN,JUL,AGO,SEP,OCT,NOV,DIC,ANUAL
48015010,SP,Aeropuerto Vásquez Cobo,Leticia,Amazonas,11,84,-69.94,-4.19,351.6,355.1,357.9,376.4,299.9,189.8,158.1,152.5,222.8,255.4,317.5,319.8,3356.9
26180160,PM,Abejorral,Abejorral,Antioquia,1,2450,-75.43,5.79,97.2,97.2,162.4,196.3,222.3,148.7,123.5,149.4,220,288.9,246.3,157.7,2110
11110020,PG,Abriaquí,Abriaquí,Antioquia,1,1920,-76.08,6.64,92.4,108.7,151.1,244.4,263.9,189,141.5,160.8,218.1,270,235,156.4,2231.3
27010850,PM,Amalfi,Amalfi,Antioquia,1,1530,-75.08,6.91,74.1,98.3,152.9,293.2,299,220.8,254.4,260.1,303.7,367.3,251.3,127.8,2702.9
27010960,PM,Hacienda Monos,Amalfi,Antioquia,1,1100,-74.9,6.9,60.3,122.7,163.8,311.9,385.4,344.5,376.1,332.2,357.2,363.1,243.8,93.6,3154.6
26195020,CO,Instituto Téc. Agropecuario de Andes,Andes,Antioquia,1,1180,-75.88,5.69,83.5,102.3,165.8,228.6,249.3,188.6,186.4,189.2,225.3,212.4,185,129.8,2146.2
26190100,PM,Santa Bárbara,Andes,Antioquia,1,1250,-75.9,5.56,116.3,138.7,176.1,248.8,265.7,209.5,197.7,199.5,226.5,262.6,200.7,164.3,2406.4
27020210,PM,Angostura,Angostura,Antioquia,1,1650,-75.33,6.88,50.8,93.7,118.2,255.4,414.6,371.1,347.1,333.7,324.1,317.7,212.3,103.6,2942.3
26210090,PM,Anzá,Anzá,Antioquia,1,550,-75.86,6.3,48.6,63.7,93.8,152,193.5,184.9,148,159.4,173.7,204.3,154.3,69.8,1646
12010070,PM,El Casco ,Apartado,Antioquia,1,18,-76.65,7.88,100,87.2,97.2,235.3,338.4,271.2,237.1,254.1,260.9,284.8,267,205.7,2638.9
12010060,PM,La Lorena ,Apartado,Antioquia,1,31,-76.69,7.86,119.5,100.3,120.1,241.6,316.9,251.6,264.8,236.7,230,278.7,268,196,2624.2
27010800,PM,La Meseta  San Pedro,Bello,Antioquia,1,2600,-75.61,6.4,45.9,53.4,82.4,142.1,181.6,148.4,133.2,128.7,165.8,203.2,148.6,82.2,1515.5
27015090,CO,Tulio Ospina,Bello,Antioquia,1,1453,-75.55,6.32,37.9,50.3,98.9,162.4,191,141,119.8,126.8,176.9,216.4,136.1,77.8,1535.3
27010870,PM,Belmira,Belmira,Antioquia,1,2540,-75.67,6.61,89.5,116,175.2,230.7,262,167.5,151.3,150.1,208.9,244.2,213.3,134.5,2143.2
26190090,PM,Betania-Las Guacas,Betania,Antioquia,1,1600,-75.98,5.76,124.5,151.2,198.2,292.4,318.2,225,222.2,235.2,267.8,307.5,240.9,161.8,2744.9
26210140,PM,Altamira,Betulia,Antioquia,1,1792,-75.95,6.22,62.8,101.1,134.5,204.3,235.1,182.2,186,169.9,222.8,231.2,202.1,104.2,2036.2
26225040,CO,Hacienda Piunti,Buriticá,Antioquia,1,1650,-75.91,6.73,29.5,40.9,67.6,150.4,187.4,135.9,124.5,145.5,184.3,188.9,129.9,64.8,1449.6
26250030,PM,Cáceres,Cáceres,Antioquia,1,95,-75.35,7.58,66.1,88.9,135.8,333.9,438.9,445.1,395.4,466.7,413.5,489,349.5,185.9,3808.7
26240100,PM,Guarumo-La Lucha,Cáceres,Antioquia,1,70,-75.21,7.86,39.9,52.9,65.2,223.7,313.5,371.5,346.7,407.9,376.4,380,254.2,132.4,2964.3
26240060,PM,Manizales,Cáceres,Antioquia,1,75,-75.42,7.84,37.2,46.6,76.8,209.9,323.3,351.7,333.4,374.7,322.7,335.2,251,90,2752.5
26210070,PM,Caicedo,Caicedo,Antioquia,1,1750,-75.98,6.41,66.1,87.9,187.9,244.9,275.4,200.2,176.4,167.7,217,247.5,154.3,91.5,2116.8
12010090,PM,Trigana,Carepa,Antioquia,1,4,-76.71,7.75,91.2,71.7,144.5,263.9,360.7,344,304.3,313.7,302.2,302.1,311.5,238.9,3048.7
26240160,PM,La Coquera ,Caucasia,Antioquia,1,49,-75.2,7.96,21.2,39.4,83,214.1,291.7,363.2,376.9,386.8,372.9,312.8,219.5,89.5,2771
25020530,PM,La Ilusión,Caucasia,Antioquia,1,60,-75.09,8.03,23.1,36.1,74,212.2,308.2,332.1,379.9,370.7,340,326.7,231.4,76.6,2711
12010030,PM,Barranquillita,Chigorodó,Antioquia,1,36,-76.7,7.57,106,75,106.5,250.7,393.7,425.3,419.3,448.3,357.4,349.9,378.6,268.1,3578.8
23080750,PM,Cocorná,Cocorná,Antioquia,1,1455,-75.18,6.05,257.2,248.3,328.6,458.5,487,316.2,306,351.3,480,526.7,471.3,325,4556.1
23080740,PM,Concepción,Concepción,Antioquia,1,1837,-75.26,6.4,88.4,131.7,186,313.4,361.8,290.1,328.5,298.1,341.8,354.9,244.9,129.7,3069.3
26215010,CO,Concordia,Concordia,Antioquia,1,1904,-75.92,6.04,89.8,108.6,153.7,256.6,281,236.1,200.8,200.6,257.4,291.2,241.7,154.5,2472
23080650,PM,Campoalegre,El Carmen de Viboral,Antioquia,1,2137,-75.34,6.07,95.8,125.4,178.5,262.8,333.8,274.9,272.8,277.3,306.6,271.8,187.2,122.5,2709.4
27010830,PM,San Isidro,Entrerríos,Antioquia,1,2320,-75.52,6.56,54.9,73.7,126.9,168,213,183.4,182.9,163.4,193.5,211.7,158.8,81.8,1812
26200150,PM,Fredonia,Fredonia,Antioquia,1,1650,-75.69,5.94,120.2,130.5,181.6,272.2,348.4,243.4,213.6,236.4,291,338.9,303.6,188.5,2868.3
11110030,PM,Fuemia,Frontino,Antioquia,1,905,-76.25,6.86,49.6,47.8,81.8,129.9,208.3,183,130.7,144.1,165.4,205.9,156.9,85.5,1588.9
11110010,PM,Normal Santa Teresa,Frontino,Antioquia,1,1370,-76.13,6.76,79.6,103.4,127.7,255.3,315.5,253.8,200.1,229.8,274,321.5,271.3,131.7,2563.7
26220090,PM,Giraldo,Giraldo,Antioquia,1,1973,-75.96,6.69,48.9,57.6,87.2,184.5,212.9,179.3,152.7,152.8,209.9,231.6,159.8,99.3,1776.5
27010820,PM,La Cuchilla,Girardota,Antioquia,1,1600,-75.45,6.37,41.3,64.1,100,191.9,253.5,170.4,148.5,175.1,218.8,251.6,156.1,93,1864.3
27010900,PM,Gómez Plata,Gómez Plata,Antioquia,1,1850,-75.22,6.68,83.7,115.4,186.6,345.5,438.9,325.4,295.1,336.2,396.8,388.2,278.3,149.9,3340
27010770,PM,El Chuscal,Heliconia,Antioquia,1,2100,-75.71,6.18,140.6,143.9,232.5,325.9,366.6,243.7,200.8,238.8,314.6,375.1,298.3,177.3,3058.1
26220100,PM,La Granja,Ituango,Antioquia,1,1000,-75.73,7.25,24,43.1,57.3,147.6,236.2,209.4,220.5,225.1,227.5,242.6,158.1,71.5,1862.9
26220110,PG,Santa Rita,Ituango,Antioquia,1,1950,-75.62,7.32,46.9,85.6,104.6,222.2,307.1,288.6,322.7,310.4,293.3,341.5,262.6,128.2,2713.7
26170190,PM,El Dique ,Jericó,Antioquia,1,850,-75.72,5.8,96.9,95.2,164.5,235.1,315.2,249.9,195.6,228.2,281.7,316.2,281.8,162,2622.3
26180170,PM,La Unión,La Unión,Antioquia,1,2530,-75.38,6,87.6,120.2,144,223.6,297.2,207.2,206.4,213.3,257.1,237.7,197.2,121.5,2313
26185020,CO,Mesopotamia,La Unión,Antioquia,1,2408,-75.32,5.89,160.3,207.8,258.3,320,405.5,360.6,363.6,331.2,399.1,303,230,194.2,3533.6
26230140,PM,La Placita ,Liborina,Antioquia,1,1250,-75.76,6.72,77.3,99.1,131.8,235.8,261,201.3,165.9,160.6,222,262,202.2,112.6,2131.6
23080640,PM,Marinilla,Marinilla,Antioquia,1,2150,-75.33,6.17,65.7,94.1,131.7,217.2,264.4,179.6,190.3,211.7,260.1,280.6,178.3,105.3,2179
27015070,SP,Aeropuerto Olaya Herrera,Medellín,Antioquia,1,1490,-75.59,6.22,63.7,79,130.4,171.9,215.2,152,133.1,139.7,181.9,226.7,158.9,105.1,1757.6
27010810,PM,Santa Helena,Medellín,Antioquia,1,2550,-75.52,6.2,113.2,126.8,175.5,299.6,346.7,215.5,200.7,223.9,286.5,380.3,288.9,161.1,2818.7
26180200,PM,Montebello,Montebello,Antioquia,1,2073,-75.54,5.95,98.2,101.1,166.4,237.4,262.3,175.7,150.4,159.1,267,342.4,288.9,182.6,2431.5
27030040,PM,El Guamo,Nechí,Antioquia,1,40,-74.81,7.9,83.4,93.9,137,310.7,520.5,471.5,496.9,596.6,511.3,514.8,450.1,230,4416.7
25021480,PM,Radio La Esperanza ,Nechí,Antioquia,1,31,-74.79,8.03,80.1,78.5,108.8,312.8,544.7,479.1,502.6,578,461.8,518.5,459.7,231.8,4356.4
26170150,PM,Pueblorrico,Pueblorrico,Antioquia,1,1785,-75.84,5.79,114.9,109.3,208,289.6,350.3,291.2,241.5,250.7,309.8,346.3,293.4,175.2,2980.2
23095010,CP,Aeropuerto Puerto Berrío,Puerto Berrío,Antioquia,8,150,-74.41,6.47,50,85.8,186.7,332.3,294.7,225.8,221.8,269.4,348.9,327.7,200.5,101.4,2645
27030080,PM,La Cruzada ,Remedios,Antioquia,1,650,-74.72,7.07,79.8,97.6,120.2,291.7,320.8,284.1,257.9,314.5,307.2,341.3,245.7,155.6,2816.4
26230200,PG,Sabanalarga,Sabanalarga,Antioquia,1,1000,-75.81,6.85,26.7,38.3,77.2,134.7,181.7,167,141.5,126.9,167.8,181.1,121.8,60.4,1425.1
26210110,PM,Peñalisa,Salgar,Antioquia,1,550,-75.86,5.93,129.9,121.1,173.7,264.8,421,335.9,296.7,287.1,333.7,351.4,328.3,166.4,3210
26230130,PM,Cruces Arriba,San Andrés de Cuerquia,Antioquia,1,2830,-75.61,6.89,65,87.3,134.2,251.4,340.2,227.3,216.6,206.4,278.1,348.6,243.3,102.6,2501
26230110,PM,San Andrés,San Andrés de Cuerquia,Antioquia,1,1600,-75.67,6.91,57,78,106.2,205.3,252.8,179.2,151.4,160.7,211.1,244,197,98.7,1941.4
23080810,PG,El Jordán,San Carlos,Antioquia,1,858,-74.83,6.25,94.5,109.7,189.4,327.9,364.6,278.4,248.6,312.3,406.6,380,270.5,152.1,3134.6
23080760,PM,San Roque,San Roque,Antioquia,1,1412,-75.02,6.49,171.5,175.4,299.7,454.9,507,363.7,309.6,382.3,467.8,469.5,364.1,197.9,4163.4
12030010,PM,San Juan de Urabá,San Juan de Urabá,Antioquia,2,4,-76.53,8.76,33.5,33.8,63,162.6,267.7,249.6,209.6,278.7,245.9,246.3,269.7,121.2,2181.6
27010880,PM,Montañitas,Santa Rosa de Osos,Antioquia,1,2630,-75.39,6.7,48.9,88.3,127.7,244.4,323.9,259.5,282.4,249.2,275.6,250.8,166.7,99.3,2416.7
23050100,PM,San Miguel,Sonsón,Antioquia,10,1751,-74.73,5.73,106,128.4,219.5,328,326.5,164.6,154.7,200.3,256.3,397.2,264.9,164.7,2711.1
26175030,CP,La Granja Nacional ,Támesis,Antioquia,1,1153,-75.69,5.72,85.8,110.3,150.2,231.4,296.2,207.5,191.8,202.5,278.9,306.3,247.9,167.3,2476.1
26250110,PM,Barro Blanco,Tarazá,Antioquia,1,190,-75.26,7.47,119.5,124.8,201.8,485,637.1,569.4,602.9,608.3,575.5,672.5,583.7,292.4,5472.9
26200120,PM,Otramina,Titiribí,Antioquia,1,1375,-75.79,6.07,97.5,107,144.4,243.1,285.3,229.4,195.9,190.2,220,279.4,223.1,110.2,2325.5
12010100,PM,Eupol,Turbo,Antioquia,1,4,-76.62,7.95,112.1,75,99.5,261.6,320.8,252.9,254.1,297.2,254.9,309.1,262.9,195.7,2695.8
12010110,PM,Prado Mar,Turbo,Antioquia,1,5,-76.64,7.99,75.6,65.3,68.7,218.4,300.7,271.6,239.7,253.7,215.6,225.8,228.7,179.5,2343.3
12020010,PM,Pueblo Bello,Turbo,Antioquia,1,10,-76.52,8.2,40.6,37,59.3,157.8,223.9,165.2,170,185.4,169.8,154,142.5,88.4,1593.9
12010120,PM,Santa Martha,Turbo,Antioquia,1,130,-76.65,7.92,101,74.7,96.2,228,330.2,318.3,278,281.4,256.7,296.6,298.8,197.9,2757.8
11070020,PM,El Roble,Urrao,Antioquia,1,2050,-76.23,6.33,119,115.9,133.8,199.4,249.7,182.5,171.9,170.6,223.6,295.8,255,168,2285.2
11070030,PM,La Clarita,Urrao,Antioquia,1,2150,-76.16,6.54,163.7,164.9,240.9,371.3,339.9,268.7,187.2,233.7,308,381.5,404.7,233.1,3297.6
11075020,CO,Urrao,Urrao,Antioquia,1,1833,-76.14,6.3,50.4,59.2,84,148.2,203.9,176.4,163.1,144.7,183.6,196.8,153.8,89.3,1653.4
27020260,PM,El Tesoro,Valdivia,Antioquia,1,1000,-75.3,7.25,122.8,159,262.2,456.3,592.6,543.1,480.2,594.3,400.7,555.4,423.2,248.6,4838.4
26240150,PG,Puerto Valdivia,Valdivia,Antioquia,1,150,-75.4,7.29,156,201.5,241.8,442,543.9,528.1,541,530.2,513.7,524.4,388.7,234.4,4845.7
26255020,CP,Santa Isabel,Valdivia,Antioquia,1,1132,-75.44,7.16,133.6,180.6,218.9,406.6,540.1,580.9,602.4,582.6,523,493.6,405.9,239.1,4907.3
23100030,PM,El Tigre ,Vegachí,Antioquia,1,994,-74.79,6.84,35.9,76.9,121.8,252.7,296.4,235.7,265.7,278.8,311.1,288.4,226.4,81.8,2471.6
23105030,CO,Vegachí,Vegachí,Antioquia,1,990,-74.8,6.77,27.2,66.1,114.3,238.1,258.1,201.3,218.8,233.9,280.6,246.5,166.7,66.6,2118.2
26200130,PM,Bolombolo,Venecia,Antioquia,1,1700,-75.84,5.97,62.4,65.1,111.5,189.1,245.4,206.7,172.5,176.1,218.1,190.5,181.5,95.3,1914.2
11060010,PM,Buchado,Vigía del Fuerte,Antioquia,1,18,-76.78,6.42,305.9,223.2,276.1,475.4,512.7,515,504.6,492,415.2,504.1,479.4,398,5101.6
27020200,PG,Cedeño,Yarumal,Antioquia,1,2400,-75.36,7.07,83.7,151,170,349.3,441.2,381.9,355.9,382.3,381.1,415.6,310.8,148.6,3571.4
27020220,PM,Los Llanos de Cuiba ,Yarumal,Antioquia,1,2750,-75.48,6.81,80.9,135.3,159,337.6,354.5,260.8,284.1,296.8,351.6,359.3,247.4,151.5,3018.8
27020190,PM,Yarumal,Yarumal,Antioquia,1,2400,-75.42,6.96,50.9,78.7,109.9,265,346.4,291,317.8,294.3,286.6,319.5,218,110.4,2688.5
23160010,PM,Yondó,Yondó,Antioquia,8,85,-73.94,7.09,29.5,75.2,180.4,271.4,359.3,265.2,240.6,326.7,391.5,359,272.9,125.9,2897.6
27030090,PM,El Bosque,Zaragoza,Antioquia,1,220,-74.84,7.32,130.8,143.6,171.4,404.1,520.7,487.5,459.6,490.2,519.2,531.3,468.7,309.1,4636.2
27030210,PM,Zaragoza,Zaragoza,Antioquia,1,50,-74.87,7.49,95,100.8,166.9,393.9,484,486.6,462.3,502.1,497.6,515.4,457.2,242,4403.8
37055010,SP,Aeropuerto Santiago Pérez,Arauca,Arauca,8,128,-70.74,7.07,12,23.7,51.1,140.1,256.1,293.7,299,216.6,186.2,191.6,108.3,29.1,1807.5
37050010,PM,Arauquita,Arauquita,Arauca,8,100,-71.42,7.04,30.2,40.5,72.3,154.4,252,335.4,263.9,220.1,207.6,217.7,148,63.1,2005.2
29040250,PM,Campo de la Cruz,Campo de la Cruz,Atlántico,2,4,-74.89,10.38,7.9,9.1,22.8,73.1,129.6,116.1,118.1,106.7,139.1,160.7,89.7,25.8,998.7
14010020,PM,Hibacharo,Piojo,Atlántico,2,80,-75.14,10.72,3.3,1.3,9.8,56.5,149.3,127.8,111,134.6,172,233.1,139.8,36.4,1174.9
29040080,PM,Polonuevo,Polonuevo,Atlántico,2,80,-74.86,10.78,10.7,3.6,14.7,75.8,156.8,126.1,137.5,146.2,161.4,206.5,130.5,29.9,1199.7
29040300,PM,Puerto Giraldo,Ponedera,Atlántico,2,5,-74.82,10.51,4.5,4.8,29.9,81.5,133.2,120.1,112,121.7,144.3,156.3,103.9,34.3,1046.5
29040230,PM,Puerto Colombia,Puerto Colombia,Atlántico,2,5,-74.97,10.99,0.3,0.3,1.4,11.9,76.2,62.4,55.6,98.5,124.5,160.7,93.6,32.4,717.8
29040190,PM,Sabanalarga,Sabanalarga,Atlántico,2,100,-74.92,10.64,9,8.3,33.7,100.2,146.3,123.8,138.8,141.1,155.2,186,116.4,33.6,1192.4
29045020,SP,Aeropuerto Ernesto Cortissoz,Soledad,Atlántico,2,14,-74.78,10.92,1.5,0.5,1.7,32.6,122,85.1,90.8,105.6,165.6,175.6,94.2,37.3,912.5
29040310,PM,San Pedrito Alerta,Suan,Atlántico,2,8,-74.92,10.28,9.8,7.7,35.6,86.5,154.6,133.4,118.7,134.1,121.6,152.2,89.1,28.9,1072.2
29040240,PG,Usiacurí,Usiacurí,Atlántico,2,100,-74.98,10.74,10.3,5.6,17.1,68.5,128.9,124.7,119,135.6,150.2,144.2,116.4,32.5,1053
21200080,PM,Arrayán-San Francisco,Bogotá,Bogotá,11,3047,-74.03,4.58,76.7,68.2,100.7,122.3,142.9,115,139.1,105,70.1,121.5,133.6,86.6,1281.7
21201540,PG,Bosa,Bogotá,Bogotá,11,2640,-74.2,4.6,19.9,29.1,49.2,81.3,78.7,53,36.2,36,44.6,81.5,70,33.5,612.9
21200310,PM,Cerro de Suba,Bogotá,Bogotá,11,2691,-74.07,4.75,43.1,69.8,95.2,113.2,104.7,50.4,42.6,44.7,65.5,129.9,116.8,69.4,945.3
21200130,PM,Delirio,Bogotá,Bogotá,11,3000,-74.05,4.55,55.7,66.9,94.8,110.1,132.9,152.4,171.6,128.2,72.4,103.9,112.1,70.6,1271.7
21200200,PM,El Hato,Bogotá,Bogotá,11,3150,-74.18,4.38,18.9,36.4,54.1,95.7,120.9,90.1,88.1,70,63.4,80.1,69.3,34.7,821.7
21200240,PM,El Verjón ,Bogotá,Bogotá,11,3250,-74.02,4.58,51.1,62.3,97,111.5,145.5,153,166.9,131.2,84.4,120.5,120.4,73.1,1316.8
21201230,PM,Enmanuel d´Alzon,Bogotá,Bogotá,11,2520,-74.07,4.7,51.8,64,88.8,104.5,100.1,39.1,32.3,37.6,54.6,125.6,116.3,74.4,889.1
21202120,PM,Fontibón Acueducto,Bogotá,Bogotá,11,2545,-74.15,4.67,24.5,38.2,70.9,95.5,91,59.2,41.3,40.6,54,92.7,93,53.6,754.4
21200320,PM,Granizo,Bogotá,Bogotá,11,3125,-74.05,4.62,74.8,73.8,95.7,124.7,132.7,91.5,83.4,75.2,60.9,122.7,133.2,95.9,1164.5
21200340,PM,La Regadera 2 ,Bogotá,Bogotá,11,3056,-74.15,4.4,19.9,38.4,57.1,102.6,144.3,126.3,125.3,96.7,75.5,99.6,80.2,36.7,1002.4
35020310,PG,Nazareth,Bogotá,Bogotá,11,2800,-74.15,4.17,19.3,40.5,70.3,107.8,168,163,157.4,124.8,92.5,93.6,68.5,32.4,1138.1
35020410,PM,Pozo Llanitos,Bogotá,Bogotá,11,2850,-74.13,4.02,23.4,45.8,68,112.4,155,148.8,146.4,119.2,95.1,95.4,74.1,42.3,1125.9
21205240,CO,Vitelma,Bogotá,Bogotá,11,2800,-74.07,4.57,56.3,77.3,107.3,120.9,121,84,91.7,78.9,58.9,117.2,133.4,87.2,1133.9
25020350,PM,Guaranda,Achí,Bolívar,1,30,-74.54,8.49,36.1,58,93.8,227.3,452.1,464.6,407.3,450.3,404.4,494.1,373.6,125.9,3587.5
25020970,PM,Arenal,Arenal,Bolívar,8,74,-73.94,8.46,19.1,17.6,75.5,158.4,234.7,168.4,156.7,216.7,228.9,282.5,143.5,27.5,1729.5
29030040,PG,Arjona,Arjona,Bolívar,2,60,-75.35,10.25,13.1,17,25,103.6,150.1,130.9,109.5,145.8,151.3,192.5,151.7,65.4,1255.9
14015020,SP,Aeropuerto Rafael Núñez ,Cartagena,Bolívar,2,2,-75.52,10.45,2,0.5,2.3,22.2,125.7,104.1,119.3,136.6,146.5,245,158.4,55.7,1118.3
14010030,PM,Bayunca,Cartagena,Bolívar,2,35,-75.4,10.52,6.7,4.2,9.3,54.1,143.9,127.5,136.7,135.2,162.5,252.2,182.8,63.8,1278.9
29030370,PM,Santa Ana,Cartagena,Bolívar,2,1,-75.55,10.23,0.5,0.4,3.9,28.3,111.1,115.8,86,118.8,119.1,191.4,119.1,46.4,940.8
25021340,PM,La Esperanza,Cicuco,Bolívar,2,18,-74.74,9.25,13.1,14.2,36,90.8,186.9,174.1,186.9,195.9,207.3,211.3,105.3,69.2,1491
25020960,PM,Córdoba,Córdoba,Bolívar,2,20,-74.83,9.59,8.8,17.9,36.6,100.5,264.3,154,203,204.3,229.1,239.2,127.1,71,1655.8
25021310,PM,El Pozón,Hatillo de Loba,Bolívar,2,20,-74.41,9,26.1,37.1,55.8,145.2,280.2,276.5,254.1,298.4,348,399.7,279.1,138.5,2538.7
25021540,PM,Las Aguadas - Alerta,Hatillo de Loba,Bolívar,2,30,-74.06,8.95,22.1,42.4,81.5,163.4,234.3,216.5,161.6,234.7,296.3,367.4,239.8,98.1,2158.1
25021510,PM,Barbosa,Magangué,Bolívar,2,19,-74.64,9.02,20.5,23.3,56,126.7,237.8,271.2,295,299.9,329.9,346.4,247.1,112.6,2366.4
25021280,PM,Coyongal Alertas,Magangué,Bolívar,2,20,-74.51,8.97,22.3,31.2,49.1,128,245.5,270.3,276.8,266.2,314.3,366.2,304.6,106.6,2381.1
25020950,PM,San Antonio Alerta,Magangué,Bolívar,2,10,-74.77,9.04,9.7,16,32.4,110.7,278,260,291.3,329,328.3,310,213.1,82.3,2260.8
29030430,PM,El Viso,Mahates,Bolívar,2,8,-75.24,10.15,9.6,27.4,36.8,102.7,171.6,183.1,204.8,210.3,219.5,236,179.2,75.8,1656.8
29030280,PM,San Basilio,Mahates,Bolívar,2,50,-75.2,10.09,30.9,34.8,53.4,161,268.1,229.7,205,321.6,307.9,329.2,231.1,74.2,2246.9
25020890,PM,Chilloa,Margarita,Bolívar,2,20,-74.22,9.12,16.3,30.3,75.8,168.7,252.3,212,156.2,214.9,252.9,291.3,177.9,72.8,1921.4
29030310,PM,El Níspero,María La Baja,Bolívar,2,10,-75.42,9.93,17,9.8,33.8,101.3,185.8,166.9,166.7,185.7,185.6,235.2,179.1,70.4,1537.3
29030450,PM,La Calma,María La Baja,Bolívar,2,60,-75.26,9.93,59.2,49.8,82.3,178.8,233.7,193.9,179.5,205.5,227.8,287.3,194.2,103.5,1995.5
29030780,PM,Mampuján,María La Baja,Bolívar,2,60,-75.23,9.98,36.7,44.6,66.5,183.8,250.6,241.5,229.7,235.4,298.9,312.1,220.9,126.3,2247
25021270,PM,Candelaria,Mompós,Bolívar,2,20,-74.53,9.07,20.6,19.8,41.7,107.3,237.9,227.6,229.8,232.4,284.9,286.1,209.1,103.7,2000.9
25021330,PM,Guaymaral,Mompós,Bolívar,2,20,-74.61,9.12,20.1,11.5,40,143.1,262.3,260.9,222,248.5,256.1,277,194.5,107.9,2043.9
25021350,PM,Mompós,Mompós,Bolívar,2,20,-74.44,9.26,12.2,13.5,45,113,205.7,170.6,149.5,166.1,195.5,214.3,116.2,78.2,1479.8
25021180,PM,Santa Cruz,Mompós,Bolívar,2,20,-74.69,9.08,20,12.6,40.8,117.7,222.2,236.9,266.7,289.7,310.3,303.8,205.5,81.1,2107.3
25021050,PM,Regidor,Regidor,Bolívar,8,35,-73.82,8.67,11.7,29.4,92.2,153,212.2,166.2,152.1,226.2,227.6,257.1,135.5,37.3,1700.5
25020810,PM,Astilleros,San Jacinto del Cauca,Bolívar,1,40,-74.61,8.29,48.7,73,108.1,297.3,486.3,457.2,534.4,617.3,479.1,605,540.2,239,4485.6
25020330,PM,Caimital,San Jacinto del Cauca,Bolívar,1,25,-74.57,8.37,42.8,62.2,94.6,315.9,437.8,427.1,511.2,561.3,491.1,602.7,491.4,211.5,4249.6
25020410,PM,La Candelaria,San Jacinto del Cauca,Bolívar,1,28,-74.73,8.22,45.6,66,93.3,250.2,445.9,432.9,473.5,615.2,433.7,496.3,490.8,199,4042.4
23200060,PM,Santo Domingo,San Pablo,Bolívar,8,80,-73.94,7.67,18.9,37.4,100.7,205.3,272,253.6,269.2,270.3,279.2,291.6,182.8,57.2,2238.2
29030050,PM,San Estanislao,San Estanislao,Bolívar,2,20,-75.16,10.4,6.3,5.9,23.2,69.4,142.7,116.7,98.9,106.7,111.4,163.2,92.3,33.5,970.2
25021290,PM,El Jolón,San Fernando,Bolívar,2,25,-74.41,9.1,21.7,20.1,52.6,120.2,227.2,217.8,170.2,204.1,252.8,276.9,206.3,95.4,1865.3
25021090,PM,Santa Rosa,San Fernando,Bolívar,2,40,-74.31,9.09,17.4,20,64.9,113.1,232.3,180.2,176.3,230.6,256.3,276.2,192,106.7,1866
29030570,PG,La Haya,San Juán Nepomuceno,Bolívar,2,100,-75.19,9.96,35.1,35.5,78.5,147.9,203.9,148.2,147.1,165.8,165.8,215.3,166.9,93.4,1603.4
29030200,PM,San Cayetano,San Juán Nepomuceno,Bolívar,2,70,-75.14,10.1,25.6,35.2,53.3,111.4,172.3,166.4,144.3,168.5,160.9,207.3,147.1,74,1466.3
14010050,PM,Cañaveral,Turbaco,Bolívar,2,75,-75.34,10.41,10.4,11.6,22.8,99.3,145.9,124.3,122,140.7,143.1,224,163.1,50.7,1257.9
29010130,PM,Hacienda Indugan ,Zambrano,Bolívar,2,20,-74.85,9.81,15.5,25.4,46.2,92.5,145.3,114.8,117.3,135.4,135.6,127.9,83.9,28.3,1068.1
29010050,PM,Zambrano,Zambrano,Bolívar,2,15,-74.82,9.7,15.4,26.1,43.3,99,135.1,121.6,102.9,112.6,122,144.7,66.3,23.1,1012.1
35070260,PG,Almeida,Almeida,Boyacá,6,1954,-73.38,4.97,16.5,44.4,70.8,133.5,208.7,238.9,227.6,213.6,153.3,118.4,67,33.1,1525.8
35070470,PM,Escuela Los Molinos,Almeida,Boyacá,6,2150,-73.41,4.95,23.4,55.9,101.5,167.4,250.4,288.4,304.4,263.8,164.3,131.2,105,44.3,1900
35190020,PM,Toquilla,Aquitania,Boyacá,6,2950,-72.79,5.52,14.4,22.4,61.5,103.5,158,183.4,189.1,171.9,143.3,108.1,76.1,26.5,1258.2
24010630,PM,Arcabuco,Arcabuco,Boyacá,6,2600,-73.44,5.76,126.3,149.8,221.5,233.2,176.8,71.9,62.5,58.2,109.1,237.6,225.9,156.4,1829.2
35080030,PM,Camp Buenavista,Berbeo,Boyacá,6,1370,-73.09,5.18,23.3,47.4,72.3,157,249.1,285.4,276.2,226.1,179.5,164.1,121.9,57.9,1860.2
24035330,AM,Boavita,Boavita,Boyacá,6,2150,-72.58,6.33,43.6,67.9,104.4,194,163.5,81.5,57.3,77,113.6,185.9,139.4,65.2,1293.3
35090050,PM,Vista Hermosa,Campohermoso,Boyacá,6,1200,-73.05,5,41.4,79.2,132.9,328.2,484.6,567.8,545.7,476.6,371.7,319.1,227.1,86.4,3660.7
24030590,PM,Cerinza,Cerinza,Boyacá,6,2643,-72.94,5.96,36.7,50.2,103.9,148.6,132.7,69.7,54.4,56.7,82.9,150.7,103,51.3,1040.8
35070070,PM,Chinavita,Chinavita,Boyacá,6,1900,-73.36,5.16,18.7,47.7,68.5,128.2,197.7,209.5,229.7,186.2,138.9,133.9,107.1,45.8,1511.9
35070060,PM,Los Quinchos,Chinavita,Boyacá,6,2150,-73.35,5.22,28.9,40.9,83.9,155.1,245.4,264,289.6,213.6,164.4,178.2,145.5,58.4,1867.9
24010830,PG,San Pedro Iguaque,Chíquiza,Boyacá,6,2985,-73.45,5.64,32.7,49.7,79.6,121.8,107.2,51.3,54.6,45.8,67.1,128.4,95.9,62.4,896.5
24035310,CO,Chiscas,Chiscas,Boyacá,6,2350,-72.5,6.55,38.2,54.4,89.9,154.1,171.6,111.8,94.7,105.4,128.6,177.2,143.7,56.2,1325.8
24035250,CO,Chita,Chita,Boyacá,6,2888,-72.47,6.19,14.8,23.9,46,108.7,120.4,113.1,159.5,121.4,95,109.1,98.6,37.3,1047.8
35070190,PG,Chivor,Chivor,Boyacá,6,1850,-73.37,4.89,41,91.4,141,262,373.5,401.3,404.2,333.8,243.4,196.9,144.5,67.9,2700.9
24030310,PM,Cómbita,Cómbita,Boyacá,6,2820,-73.32,5.63,31.1,33.7,82.6,122.1,104.5,71.2,59.9,50.5,66.1,124.3,97.1,43.6,886.7
23120210,PM,Coper,Coper,Boyacá,6,1090,-74.05,5.47,209.1,211.5,313.7,388.2,350.7,172.7,114.9,139.2,249,429.3,403.6,293.6,3275.5
24030350,PG,Duitama,Duitama,Boyacá,6,2540,-73.04,5.83,23.9,39.3,72.3,122.7,123.5,63,52.4,54.3,74.5,130.5,84.4,48.2,889
24030840,PM,La Antena Tv Rusia,Duitama,Boyacá,6,3650,-73.08,5.89,54.7,82.8,116.2,161.2,139.4,77.5,81.3,66.1,82.1,156.8,133.2,84.5,1235.8
24035120,AM,Surbatá Bonza,Duitama,Boyacá,6,2485,-73.07,5.8,23.5,41.6,74.9,122.3,117.6,70.3,49.4,48.2,76,113.2,89.3,43.6,869.9
24030260,PM,El Cocuy,El Cocuy,Boyacá,6,2749,-72.45,6.41,19.3,37,63.2,110.2,114.3,72,67.8,65.3,84.9,120,98.3,48.6,900.9
24030660,PM,El Mortiño,El Cocuy,Boyacá,6,3409,-72.42,6.38,27.9,42.7,71.8,127.7,151.1,98.1,81.4,88.4,97.6,141.8,121.7,60.8,1111
24030540,PM,Firavitoba,Firavitoba,Boyacá,6,2486,-72.98,5.66,20,25.4,58.2,99.7,90.9,51.6,46.4,41.4,53.6,94.8,78.9,29.9,690.8
24010810,PM,Gachantivá,Gachantivá,Boyacá,6,2375,-73.55,5.75,60.5,88.6,127.4,197.1,178.5,86.8,75.6,77.5,117.4,200.3,163.5,92.9,1466.1
24030640,PM,Nimicia Escuela Rural,Gámeza,Boyacá,6,3200,-72.77,5.78,24.1,34.6,65.2,94.9,129.3,152.2,198.6,161.4,99.8,115.3,82.9,38.5,1196.8
35070080,PG,Garagoa,Garagoa,Boyacá,6,1700,-73.37,5.08,15.3,32.8,62.8,115.5,181.2,191.4,201.4,177,123.1,105.2,87.2,37.1,1330
24030230,PM,Iza,Iza,Boyacá,6,2470,-72.98,5.62,13.2,26,56.1,88.6,84.6,47.4,39.3,37.2,48.1,77.2,70.6,22.9,611.2
24030580,PM,Jericó,Jericó,Boyacá,6,2962,-72.59,6.14,21.7,39.6,65.8,128.3,122.3,57.2,56.8,58.2,87.5,132.8,105.7,51.4,927.3
35080110,PM,Alto Muceno,Macanal,Boyacá,6,2250,-73.26,5.01,39.8,69.7,117.7,243.4,372.1,412.9,417.4,348.5,250.1,197.8,142.1,78,2689.5
35075040,CP,Institución Agrícola Macanal,Macanal,Boyacá,6,1300,-73.32,4.97,28.2,61.7,99.4,194.4,316,348.8,358.4,292.4,212.2,159.5,106.3,49.4,2226.7
35070520,PG,Los Pomarrosos ,Macanal,Boyacá,6,1780,-73.35,4.93,39.1,66.2,112.7,214.4,354.4,386.7,392.4,304.6,220.6,170.2,130.6,54.2,2446.1
35070130,PM,Quebrada Honda,Macanal,Boyacá,6,1200,-73.31,4.95,30,71.6,111,231.7,366.9,390.4,401.1,322.5,230.3,174.2,109.6,55.6,2494.9
24030560,PM,Mongüa,Mongüa,Boyacá,6,2900,-72.79,5.76,20.6,25.7,60.5,88.8,104.5,88.2,111.5,103.5,75.7,86.7,74.8,29.3,869.8
24030190,PM,Monguí,Monguí,Boyacá,6,2970,-72.85,5.72,20.4,36,65.1,114,108.5,48.9,65.3,55.7,55.7,95.1,82.3,28.1,775.1
24010710,PM,Moniquirá,Moniquirá,Boyacá,6,1764,-73.58,5.85,64.6,101,175.1,273.6,287.2,203.8,178,180.7,213.1,250,189.2,106.7,2223
24010840,PM,Panelas,Motavita,Boyacá,6,3195,-73.39,5.63,28,36.1,61.4,104.8,96.2,66.3,55.7,54.9,65.5,108.8,90.3,39.1,807.1
23120050,PM,Muzo,Muzo,Boyacá,6,850,-74.1,5.53,129.2,159.6,221.2,351.2,332.4,167.7,124.1,111.1,253.2,367.7,241,162.5,2620.9
24035150,CP,Belencito,Nobsa,Boyacá,6,2530,-72.89,5.78,30.8,38.1,73.5,112.9,104.5,54.2,52.2,44.4,63.3,102,88.1,46,810
24030790,PM,Nobsa,Nobsa,Boyacá,6,2500,-72.94,5.77,29.5,37.9,74.9,109,104,53.8,51.4,43.5,63.3,103.9,89.8,41.1,802.1
35075010,AM,Nuevo Colón,Nuevo Colón,Boyacá,6,2438,-73.45,5.35,16.1,29.1,53.1,84,109.8,116.8,125.9,102.5,76.1,95.2,71.1,31.9,911.6
23125080,CO,Otanche,Otanche,Boyacá,6,1100,-74.18,5.66,182.4,209.5,261.5,393.7,378.3,210.2,177.3,204.3,281,494.1,368.6,239.6,3400.5
35070210,PM,Pachavita,Pachavita,Boyacá,6,2160,-73.4,5.14,20.8,39.5,88.6,143.7,176.7,177.1,183.1,167,117.9,120.7,89.8,41.5,1366.4
24030510,PM,El Cerezo,Paipa,Boyacá,6,2900,-73.07,5.7,26.2,42.9,84.7,116.1,110.9,60.8,55.7,46.8,72.8,121.1,105.6,52.8,896.4
24010870,PM,Palermo,Paipa,Boyacá,6,2200,-73.2,5.9,90,111.6,161.1,193.9,154.6,79.9,59.1,63.6,99.1,207.1,182.4,112.6,1515
24035170,AM,Tunguavita,Paipa,Boyacá,6,2470,-73.12,5.75,25.7,47.7,79.2,130.6,124,79.2,58.8,60.3,79.8,128.3,106.8,46.8,967.2
23120120,PM,Santa Rita,Pauna,Boyacá,6,2800,-73.92,5.6,49.1,82.7,110.7,175.3,155.8,65.3,57.7,47.8,91.4,186.6,143.6,92.9,1258.9
24030120,PG,Pesca,Pesca,Boyacá,6,2678,-73.08,5.52,10.4,22.8,48.1,78.9,96.9,62.9,59.4,51,61.1,90.6,66.5,23.5,672.1
35070010,PG,Ramiriquí,Ramiriquí,Boyacá,6,2360,-73.33,5.4,18.4,35.4,66.1,100.8,145.6,134.9,141.4,109.5,85.4,109.9,94.3,34.4,1076.1
24010180,PM,Ráquira,Ráquira,Boyacá,6,2290,-73.63,5.54,46.1,66.1,119,122.9,107.4,34.2,30.3,27.6,66,155.5,131,69.6,975.7
24010700,PM,La Granja Saboya ,Saboyá,Boyacá,6,2550,-73.76,5.7,44.1,79.2,119.1,191.8,136.8,62.4,50.6,57.4,107.8,203,149,66.9,1268.1
24015220,CP,Villa Carmen,Samacá,Boyacá,6,2600,-73.5,5.51,29.9,50.1,74,78.7,78,40,37.7,33.1,48.9,98.7,92.8,42.8,704.7
35080070,PM,San Luis de Gaceno,San Luís de Gaceno,Boyacá,6,400,-73.17,4.82,35.7,79.9,142.7,391.1,567,562.3,532.8,433.6,382.2,322.6,237.3,89.9,3777.1
23120250,PM,Borbur 2,San Pablo de Borbur,Boyacá,6,681,-74.07,5.65,82.5,102.4,157.7,226.8,263.2,154,122.2,144,202.2,263.2,232.3,115.2,2065.7
35080080,PM,Piedra Campana,Santa María,Boyacá,6,450,-73.23,4.86,61.5,104.4,174.1,442.4,619.1,626.8,594.5,481,419.2,392,283.8,153.2,4352
35070180,PG,Santa María,Santa María,Boyacá,6,850,-73.26,4.86,57.4,114.5,195.4,460.9,643.3,694.4,627.4,536.3,436,437.3,323.6,177,4703.5
24030400,PM,Santa Rosa de Viterbo,Santa Rosa de Viterbo,Boyacá,6,2690,-72.99,5.87,28.7,42.4,86.3,133.7,136.4,59.3,53.9,51.8,77.4,149.2,103.3,50.3,972.7
24010460,PM,Santa Sofía,Santa Sofía,Boyacá,6,2370,-73.6,5.72,46.5,81.8,121.8,150.3,140.5,81,64.4,55.2,99.8,187.6,173.7,86.1,1288.7
24010110,PM,La Comoda,Santana,Boyacá,8,1520,-73.47,6.08,73.1,105.2,156.7,249.3,311.8,219.3,198.3,195.5,262.8,261.6,218.7,121,2373.3
24030670,PM,Santa Rosita,Sativanorte,Boyacá,6,3240,-72.77,6.14,40.6,57.3,88.4,148.5,120.6,60.6,63.6,58.3,106.1,140.7,122.8,47.6,1055.1
24035320,CO,Sativanorte,Sativanorte,Boyacá,6,2594,-72.7,6.12,38.9,52.4,91.3,153.5,122.8,46.1,44.7,49.7,81.6,156.4,148.9,62.5,1048.8
24030140,PM,Siachoque,Siachoque,Boyacá,6,2720,-73.25,5.51,15.1,21.1,49.4,94.3,107.1,73.2,67.1,48.4,67.8,99.2,82.9,29.3,754.9
24030690,PM,Curital,Socha,Boyacá,6,3052,-72.64,5.99,28.8,37.8,63.6,120.6,111.9,61.7,66,65.7,71.6,125.1,98.3,44,895.1
24030570,PM,Aposentos,Socotá,Boyacá,6,2328,-72.64,6.06,27.1,30.7,56.6,105.4,104.2,36.9,31.2,38.5,59.8,113.4,93.1,41.5,738.4
35235010,CO,El Cardón,Socotá,Boyacá,6,3590,-72.53,6.01,26.8,59.5,89,203,301.2,377.7,455.4,368.6,252.8,196,117.2,61,2508.2
24035340,CP,Aeropuerto Alberto Lleras Camargo,Sogamoso,Boyacá,6,2500,-72.97,5.68,22.8,29.2,64.5,103,95,54.3,51.5,45.1,60.7,102.2,86.3,27.8,742.4
24030940,PG,Sena,Sogamoso,Boyacá,6,2500,-72.91,5.76,29.7,31.9,64.6,111.4,96,46.9,42.4,40,58,92.2,79.9,35.6,728.6
35070100,PM,Somondoco,Somondoco,Boyacá,6,1600,-73.43,4.98,15.3,37.7,56.9,115.3,173,170.9,185.7,147.2,106.3,90.4,62.2,24.5,1185.4
24030380,PM,Sotaquirá,Sotaquirá,Boyacá,6,2860,-73.23,5.75,34.4,69.8,95.7,129.5,139.1,95.8,80.6,80.2,91.4,148.4,119.4,59.8,1144.1
24030240,PM,Susacón,Susacón,Boyacá,6,2550,-72.69,6.23,22.4,42.4,87.2,149.6,133,43,33.8,39.4,87.2,159.2,117.2,50.3,964.7
24030160,PM,Tasco,Tasco,Boyacá,6,2486,-72.78,5.86,24.5,36.9,74,114.4,88,45.9,41.4,37.4,56.9,83.9,75.5,36.6,715.4
35070550,PG,Valle Grande,Tenza,Boyacá,6,1830,-73.43,5.06,19.8,24.3,57.7,110.2,185.7,192.4,201.2,163.3,115.3,102,78.5,33,1283.4
35070040,PM,Tibaná,Tibaná,Boyacá,6,2115,-73.4,5.32,17.3,29.9,58.3,103.1,154.9,154.2,174.4,144.8,121.8,131.5,98.3,40.6,1229.1
24030410,PM,Tibasosa,Tibasosa,Boyacá,6,2500,-73,5.74,22,30.8,64.3,96.1,94.2,46.7,52.7,48.8,53.8,106.9,81.9,40.9,739.1
24030800,PM,Casa Amarilla,Toca,Boyacá,6,3200,-73.16,5.53,14.8,32.7,51,91.9,102,77,70.5,50.8,57.5,93.8,95.1,37.4,774.5
24030770,PM,El Garrocho,Toca,Boyacá,6,2836,-73.13,5.62,18.9,27.6,60.8,94.3,77.2,46.5,43.5,39.5,46.9,85.1,80.7,37,658
24035300,ME,San Cristobal,Toca,Boyacá,6,2700,-73.19,5.6,20.2,34.2,69.8,94.5,94.9,53.9,49,38.8,56.7,91.2,87.5,42.2,732.9
24035130,CP,U P T C,Tunja,Boyacá,6,2690,-73.36,5.54,18.1,27.4,55.2,79,81.7,54.1,49.7,39.9,50,85.9,73.9,32.2,647.1
35070030,PM,Turmequé,Turmequé,Boyacá,6,2400,-73.5,5.32,13.5,24.7,52.7,76,105.6,95.2,104.1,92.7,66.3,99.1,67.6,27.4,824.9
24030820,PG,Los Azulejos,Tuta,Boyacá,6,2780,-73.21,5.66,21.7,39,72,114.1,102.8,59.7,53.9,43.7,73.3,113.1,97.6,45.1,836
24030530,PM,San Antonio,Tuta,Boyacá,6,2580,-73.23,5.7,32,44.2,73.8,117.4,106.8,59.9,56.2,47.8,75,121.6,85.3,45.8,865.8
24030860,PM,La Capilla,Tutazá,Boyacá,6,2800,-72.87,6.1,35.5,61.4,99.7,153.3,138.3,59.1,48.4,60.3,93.3,146.4,93.9,57.2,1046.8
24030650,PM,Tutazá,Tutazá,Boyacá,6,2833,-72.86,6.03,38.5,57.1,102,161.7,127.7,45.5,55.6,61.7,88.2,134.3,104.3,43.3,1019.9
35070050,PM,Úmbita,Úmbita,Boyacá,6,2300,-73.44,5.22,13.7,30.4,56.3,106.5,137.2,138.5,149.2,124.8,96.6,102.1,78.6,32.7,1066.6
35070020,PM,Ventaquemada,Ventaquemada,Boyacá,6,2630,-73.6,5.38,18,29.8,57,84,103,105.7,110.1,95.8,69.8,99.9,79.1,39.5,891.7
24010410,PM,Hacienda  El Emporio ,Villa de Leyva,Boyacá,6,2120,-73.55,5.6,30.3,48,74.7,87.6,76.7,24.4,19.7,21.2,49.4,100.4,78.7,50.3,661.4
24015300,CP,Villa de Leyva,Villa de Leyva,Boyacá,6,2215,-73.54,5.66,51.8,71.1,115.3,117.1,107,40.5,40.2,41.4,65.7,146,120.3,88.2,1004.6
35080010,PM,Zetaquira,Zetaquira,Boyacá,6,1720,-73.17,5.28,26,34.8,71.3,143.1,224.8,276.8,275.9,226.5,134.9,173.8,137.3,80.4,1805.6
26180190,PM,Aguadas,Aguadas,Caldas,1,2400,-75.45,5.6,122.1,146.7,240.4,355.5,365.5,214.3,183.5,197.5,298,368.1,307.5,193.1,2992.2
26160160,PM,La María ,Aguadas,Caldas,1,704,-75.58,5.59,122.6,148.1,220.7,244.4,334.7,211,162.9,185.6,248.1,318.3,317.4,207,2720.8
26180220,PM,La Pintada,Aguadas,Caldas,1,608,-75.6,5.73,65.9,77.9,120,190.6,256.5,146.7,142.7,180.5,245.2,294,215.6,121.1,2056.7
26155110,SP,Aeropuerto La Nubia,Manizales,Caldas,9,2104,-75.47,5.03,103.7,86.7,136.9,177.9,161.7,111,70.9,72.1,137.9,209.6,172.4,122.2,1563
26150160,PM,La Esperanza ,Manizales,Caldas,9,3341,-75.36,5.02,67.4,69.6,113,175.1,194,133.3,108.1,96.2,135.3,184.6,167.6,97.8,1542
23020080,PM,Manzanares,Manzanares,Caldas,10,1974,-75.14,5.27,177.3,234.7,319.9,358.5,359,179.5,137.1,191.1,293.6,370.6,364.1,260.9,3246.3
23050080,PM,Marquetalia,Marquetalia,Caldas,10,1550,-75.06,5.3,212.1,256.8,316,328.9,342.2,198.7,143.1,202.4,310.6,334.5,340.1,254.3,3239.7
23020090,PM,Marulanda,Marulanda,Caldas,1,2637,-75.27,5.28,64.7,102.3,153.5,211.4,267.4,195.7,157.4,162.6,242,221,161.3,103,2042.3
26160120,PM,La Cristalina,Neira,Caldas,9,2411,-75.44,5.19,143.8,115.9,167.3,198.8,204.5,92.9,72.3,89.3,158.9,300.5,273.8,162.4,1980.4
23050250,PM,Norcasia Radio,Norcasia,Caldas,10,737,-74.89,5.57,226.5,253.5,300.8,449.9,411.8,200.3,176.2,269.4,325.8,511.9,499,348.2,3973.3
26160090,PM,Pacora Plaza Feria,Pácora,Caldas,1,1730,-75.46,5.52,128.9,152.1,223.8,292.5,302.5,223.3,175.7,197.2,287.1,324.5,263.7,202.1,2773.4
23050230,PM,San José Pensilvania,Pensilvania,Caldas,10,2100,-75.15,5.37,172.1,232.6,307.5,340.9,345.2,201.5,161.1,201.2,306.5,358.9,328.1,219.6,3175.2
26185040,CO,San Félix,Salamina,Caldas,10,2690,-75.38,5.37,78,86.9,142.7,180.3,174.5,89.3,68.1,83.7,135.7,233.7,217.4,130.4,1620.7
23040070,PM,Cañaveral,Victoria,Caldas,10,920,-74.94,5.33,323.5,300.4,406.9,459.9,435.2,202,154.1,251.6,372.6,594.5,686.9,495.5,4683.1
23020100,PM,La Victoria,Victoria,Caldas,10,760,-74.91,5.32,230.4,220.6,303.7,375.6,335.1,178.9,139.7,202.5,297.5,519.7,519.4,367.1,3690.2
26150150,PM,Papayal,Villamaría,Caldas,9,2304,-75.49,4.95,110.4,116.5,162.6,214.8,221.9,152.7,100.5,93.8,156.2,234.2,232.7,138.5,1934.8
44045030,CO,La Mono,Belén de los Andaquíes,Caquetá,4,300,-75.81,1.3,145.1,219.6,316.2,417.1,437.6,406.8,338.9,269.2,249.5,299.9,267.2,160.9,3528
46035010,CO,Maguare,El Doncello,Caquetá,4,270,-75.16,1.64,77.6,146,291.7,423.3,379.9,353.3,307,207.5,234.3,292.2,220,98.4,3031.2
44035020,CO,Aeropuerto Gustavo Artunduaga,Florencia,Caquetá,4,244,-75.56,1.59,104.1,191.6,302.1,454,510.4,492.3,432.5,329.8,313.1,278.7,243.5,137.3,3789.4
44030060,PM,Larandia,Florencia,Caquetá,4,390,-75.49,1.49,136.8,222.6,388.1,498.9,496.4,474,422.7,288.3,307.8,307.1,280.4,161.9,3985
44035030,AM,Macagual,Florencia,Caquetá,4,280,-75.66,1.5,113.4,191.9,307.6,444.8,478.7,448.9,406.3,302.8,282.8,297.5,243.7,137.2,3655.6
44045010,CO,San José del Fragüa,San José del Fragüa,Caquetá,4,320,-75.96,1.33,182,266.7,355,500.4,507.7,436.7,358.7,305.4,299,367.8,372.6,226.6,4178.6
35190070,PM,San José  ,Aguazul,Casanare,6,190,-72.46,5.09,8.1,40.6,84.5,235.3,287.2,299.3,258.9,223.3,202.7,244.4,130.2,17.2,2031.7
35190030,PG,Chámeza,Chámeza,Casanare,6,1080,-72.9,5.2,66.8,84,187.5,424.8,614.1,738.2,745.4,520.3,462.9,483.8,308,127.9,4763.7
35225020,CO,Módulos,Orocué,Casanare,3,130,-71.43,4.91,17.3,37.1,82.7,206.7,323.2,386.4,312.9,283.6,224.4,217.8,154.5,31.3,2277.9
35220030,PG,Orocué,Orocué,Casanare,3,130,-71.33,4.79,12.5,37.6,71.8,195.8,289.5,307.1,249.4,214.7,206.5,215.8,142.7,49.2,1992.6
35230010,PM,San Luís de Palenque,San Luís de Palenque,Casanare,6,170,-71.73,5.42,12.9,41.7,54.8,198.3,281.9,296.5,272.2,235.3,204.8,203.6,99.9,32.7,1934.6
35180010,PM,La Pradera ,Tauramena,Casanare,6,180,-72.67,4.94,9.1,53.5,86.9,282.5,362.7,323.3,329.1,319.3,308.4,304.4,170.8,29.6,2579.6
35210010,PM,El Morro,Yopal,Casanare,6,656,-72.46,5.45,20.3,81.7,131.4,367.1,543.5,545.4,497.6,461.1,455.9,394.2,209.7,59.1,3767
52025010,CO,Bolívar,Bolívar,Cauca,7,1510,-77,1.83,171.1,138.6,184.9,213.7,133.1,54.2,34.1,29.6,89.4,248.2,277.5,209.8,1784.1
52020050,PM,El Rodeo ,Bolívar,Cauca,7,1400,-76.99,1.88,141.1,125.2,157.3,188.7,126.3,51,28.9,23.7,80.1,215.3,260,180,1577.5
52020010,PM,Guachicono,Bolívar,Cauca,7,720,-77,2.05,169.2,125,196.3,180.8,171.6,81.7,46,33.2,91.8,249.9,271.7,265.8,1883.1
52025020,CO,Los Milagros ,Bolívar,Cauca,7,2300,-76.89,1.75,180.3,136,172.4,170.5,109.5,46.4,29.7,21.9,57.6,192.6,234.6,196.5,1548
26020100,PM,Buenos Aires,Buenos Aires,Cauca,9,1228,-76.64,3.02,211.3,207,259.8,305.1,273.6,165.4,124,124,202.1,316.2,345.5,234.1,2768.1
26050270,PM,El Silencioso,Buenos Aires,Cauca,9,1156,-76.72,3.12,158.9,182.1,224.6,328,322,214.5,117,125.3,246.3,321.4,310,225.3,2775.4
26050340,PM,La Balsa ,Buenos Aires,Cauca,9,970,-76.6,3.1,161.1,152.4,200.9,291.3,232.4,140.6,78.9,79.3,152,266,284.9,175.3,2215.1
26020160,PM,La Catalina,Buenos Aires,Cauca,9,1441,-76.65,2.95,178,186.8,218.3,274.5,224.9,142.7,91.1,89.9,161.9,270.7,293,243.3,2375.1
26020390,PM,Ovejas Abajo - Alerta,Buenos Aires,Cauca,9,1546,-76.59,2.85,187.7,184,228.3,228.1,182.2,94.3,87.1,67.2,114.2,226.5,293.8,198.6,2092
26030070,PM,Dinde,Cajibío,Cauca,9,1246,-76.75,2.7,259.1,240.2,279.6,308.8,254.2,171.3,132.2,105.1,190.8,308,338.4,317.7,2905.4
26020230,PM,El Rosario,Cajibío,Cauca,9,1767,-76.76,2.61,268.4,244.9,267.2,267.1,219.2,145.8,107.9,98.4,172.8,304.8,343.2,329.3,2769
26040290,PM,La Aguada ,Caldono,Cauca,9,2018,-76.41,2.88,165.2,173.7,226.8,224.7,172.1,62.7,55.8,51.9,93.4,265.9,253.2,198.3,1943.7
26040210,PM,El Trapiche,Caloto,Cauca,9,1500,-76.25,3.02,144.7,139.2,160.8,196.9,138.6,67.5,56.9,35.7,87.2,237.5,229.7,181.6,1676.3
26040310,PM,Río Palo,Caloto,Cauca,9,1100,-76.38,3.07,199.1,217.2,244.5,303.8,210.9,130,67.6,54.4,126.1,307,348.9,255.2,2464.7
26040250,PM,Corinto,Corinto,Cauca,9,1107,-76.25,3.18,132,126.2,158.5,202.9,132.9,67.8,45.9,41.8,92.2,219.1,212.6,154.1,1586
26030060,PM,Gamboa,El Tambo,Cauca,9,2171,-76.85,2.63,270.5,210,259.9,277.8,243,142.7,108.4,113.1,194.3,335,400.7,356.9,2912.3
26030080,PM,La Romelia,El Tambo,Cauca,9,2502,-76.9,2.62,319.4,259.7,311.2,325.9,300.6,199.9,126.2,163,213.9,395.6,506.6,399.6,3521.6
52010100,PG,Quilcase,El Tambo,Cauca,9,916,-76.85,2.33,192.7,162.7,186.9,249.5,213.9,90.1,38.5,51.2,103.2,266,329.2,261.1,2145
26030090,PM,Remolino Alertas,El Tambo,Cauca,9,1628,-76.83,2.52,178.2,140.2,179.9,255.1,154.6,81.5,70.4,65.5,132.1,284.8,324.7,259.9,2126.9
21050250,PM,Altamira,Inzá,Cauca,4,2235,-76.1,2.5,100.3,122.8,161.4,216.7,237.4,192.7,191.4,129.1,151.3,200.6,161.8,115.9,1981.4
21050310,PM,Escuela Riosucio 2,Inzá,Cauca,4,2750,-76.17,2.45,97.2,134.5,166.2,237,256.3,270.7,257.3,188.9,176.8,203.9,166.2,128.9,2283.9
21050110,PM,Inzá,Inzá,Cauca,4,1800,-76.06,2.55,91.3,112.2,132.1,170.7,168.5,129.5,128.1,82.2,95.1,154.6,142.1,116.6,1523
21050230,PM,San Andrés,Inzá,Cauca,4,1595,-76.05,2.58,125.8,119.4,168.1,184.6,210,155.2,167.1,98,114.9,200,178.9,146.8,1868.8
21050240,PM,Santa Teresa,Inzá,Cauca,4,1600,-76.05,2.46,95,132.3,147.8,185.1,217.8,131.4,123.6,82.1,106.9,187.5,147.2,116.7,1673.4
52020020,PM,La Vega,La Vega,Cauca,7,2272,-76.78,2.01,110.7,92.9,103.5,118.7,68,35.2,26.3,18.5,46.1,141.6,158,134.3,1053.8
53080020,PM,La Concha,López de Micay,Cauca,7,130,-77.14,3.17,944.3,804.3,795.1,1113.5,1171.9,970.5,1023,949.3,1211.2,1258,1225.2,1161.9,12628.2
53070050,PM,Noanamito,López de Micay,Cauca,7,100,-77.54,3.08,445.1,272.7,358.1,510.2,796.7,565.6,488.9,573,760.5,720.5,617.7,568.5,6677.5
52020040,PM,Caney El Mojarras,Mercaderes,Cauca,7,350,-77.24,1.9,102.2,89.1,126.2,141.7,115,52.2,37.1,26.6,78.1,212,203.5,142.8,1326.2
26065020,CO,Miranda,Miranda,Cauca,9,1133,-76.22,3.25,118.8,120.4,157.6,202.6,122.8,69.5,56.3,43.6,116.3,219.5,205.4,128.8,1561.6
26020220,PM,Morales,Morales,Cauca,9,1692,-76.62,2.77,246.7,215.2,272.6,295.4,249.8,143.1,98.1,96.1,160.8,273.2,315.4,263.7,2630.1
26030130,PM,Pan de Azúcar,Morales,Cauca,9,1200,-76.7,2.72,264.4,215.6,246.2,289.2,248.4,154.3,123.5,98.3,178.9,284.4,311,282.5,2696.7
21050220,PM,San Luis,Páez,Cauca,4,1462,-75.93,2.57,101.4,115.7,138,173.9,140.5,101.9,83.9,64.7,92.7,159.2,147.4,128.7,1448
52020030,PM,El Estrecho,Patía,Cauca,7,720,-77.12,1.96,115.7,83.5,107.2,133.7,106.2,41.7,31.4,23.2,81.1,178.3,213.5,158.7,1274.3
26020030,PM,Piendamó,Piendamó,Cauca,9,1872,-76.54,2.64,223.5,200.7,236.1,233.6,152.3,86.4,63.5,50.5,95,235.3,276.6,256.3,2109.8
26035030,SP,Aeropuerto Guillermo León V.,Popayán,Cauca,9,1752,-76.61,2.45,201.1,164,214.4,206.5,169.9,84,51.7,48,113.6,268.5,329.5,264.2,2115.4
26020180,PM,Sate,Popayán,Cauca,9,1742,-76.64,2.5,210.5,169.4,201.4,200,158.3,95.4,65.9,64.2,125.8,283.2,318.4,281.4,2173.9
26010030,PM,Puracé,Puracé,Cauca,9,2652,-76.45,2.38,172.4,129.4,167,189.7,173.2,61.7,54.9,31.7,86.5,220.5,274.3,223.4,1784.7
26020320,PM,Termales Pilimbala,Puracé,Cauca,9,2900,-76.4,2.36,113,107.9,133.2,143.4,121.1,104,109.6,89.4,71.6,175.2,185.7,147.4,1501.5
52010050,PG,Párraga,Rosas,Cauca,7,1500,-76.79,2.23,238.5,158.8,190,231.2,168.9,77.2,42,40.7,90.7,266.2,363.5,311.9,2179.7
52010040,PM,Rosas,Rosas,Cauca,7,1750,-76.74,2.26,261.5,202,202.4,214.9,160.7,66.5,42.7,43.3,103,300.3,372.9,336.5,2306.7
52020070,PM,Santiago,San Sebastián,Cauca,7,2180,-76.78,1.81,130.3,102,111.2,88.5,72.8,32.3,33.1,22.1,37.7,145.2,184,164.2,1123.4
44010100,PG,Santa Rosa,Santa Rosa,Cauca,7,1510,-76.57,1.69,88.2,108.4,125.1,195,250.5,286.6,266.6,207.6,166,150.3,139.8,98.8,2083
26020200,PM,El Amparo,Santander de Quilichao,Cauca,9,1197,-76.49,2.96,190.8,184.2,221.6,239.6,204,110.6,79.1,81.4,148,276.7,267,202.2,2205.2
26020450,PM,Mandivá,Santander de Quilichao,Cauca,9,1250,-76.53,2.97,191,178.1,216.5,231.8,200.9,104.4,70.5,60.1,126,254.9,276.3,206.1,2116.6
26020250,PM,Mondomó,Santander de Quilichao,Cauca,9,1397,-76.55,2.9,187.9,169.6,205.7,204,173.7,78.3,69.7,60.2,104.9,204.5,270,179.6,1908.1
26040340,PM,Pitayo,Silvia,Cauca,9,2500,-76.35,2.7,158.1,146.1,191.9,179.3,154.1,51.7,40.1,30.4,83.6,248.9,250.4,190.8,1725.4
26020020,PM,Planta Eléctrica Silvia,Silvia,Cauca,9,2446,-76.35,2.62,122.8,118.8,146.5,149.3,118.3,44.6,37.4,26,58.5,175.7,205.6,146.3,1349.8
53060020,PM, Saija,Timbiquí,Cauca,7,30,-77.62,2.87,425.1,287,368.4,437.1,743.9,537.7,540.6,512.7,644.4,717,520.4,469.2,6203.6
26040190,PM,Tesorito,Toribío,Cauca,9,2339,-76.15,3.03,101.2,84.5,122.1,149.3,133.6,76.5,48,26.6,53.1,164.1,164,125.8,1248.8
26040220,PM,Tominio,Toribío,Cauca,9,1838,-76.22,3.05,171.5,150.2,187.9,190,150.7,75.9,57.3,39.1,82.8,257.4,246.1,198.3,1807.2
26020460,PM,Polindara,Totoró,Cauca,9,2507,-76.4,2.49,160.8,121.1,156.8,154.9,92.1,47,28.1,14.4,52.1,197,247,192.4,1463.7
26020130,PM,Totoró,Totoró,Cauca,9,2427,-76.42,2.54,180.6,176.4,195.3,174.5,113.7,51,32.9,21.2,63.5,215.3,251.7,248.4,1724.5
23215030,PM,Aguas Claras,Aguachica,Cesar,8,208,-73.6,8.23,16.7,30.8,53.8,146.4,190.3,152.6,126.1,152.1,196.6,161.6,110.5,49,1386.5
23190710,PM,Barranca Lebrija,Aguachica,Cesar,8,50,-73.72,8.01,8.3,14.8,48.7,177.7,316.5,259.4,217.9,264.8,264.3,250.8,145.6,41.1,2009.9
28020600,PM,El Retorno ,Agustín Codazzi,Cesar,5,150,-73.36,9.85,14.4,30.5,77.4,135.1,203.9,126.8,88.4,142.7,165.7,207.1,133.9,45.8,1371.7
28025090,CO,Hacienda Centenario,Agustín Codazzi,Cesar,5,100,-73.27,9.85,16,34.9,71.4,152.7,196.3,141.5,124.5,149.3,199.8,245.5,163.8,63.7,1559.4
28020080,PM,Hacienda Las Playas,Agustín Codazzi,Cesar,5,60,-73.46,9.85,6.3,23.4,78.2,142.2,169.4,128.9,147.8,135.7,149.8,215.1,159.4,46.2,1402.4
28020440,PM,Hacienda Santa Teresa,Agustín Codazzi,Cesar,5,80,-73.29,9.92,18.5,38.4,65.3,135.5,196.3,124.7,124.5,172.9,176.6,256.9,170.7,60.9,1541.2
28025070,AM,Motilonia Codazzi,Agustín Codazzi,Cesar,5,180,-73.25,10,22.7,37.2,81.4,148.2,219.4,143.5,114,153.9,193.2,258.9,173,64.1,1609.5
25020220,PM,Astrea,Astrea,Cesar,5,50,-73.97,9.49,12.1,26.5,83.5,148.5,185.7,138.7,96.5,159.8,193.7,244.8,150.3,46.6,1486.7
25021650,PM,El Yucal,Astrea,Cesar,5,40,-73.88,9.56,9.3,27.4,90.7,153.8,190.4,121,127.2,171.3,235.4,236,188.9,71,1622.4
28040030,PM,Bosconia,Bosconia,Cesar,5,130,-73.88,9.98,13.5,27.7,78.7,157.5,154.3,144.6,130,154,147.8,154.9,146.4,35.1,1344.5
28040070,PM,Palmariguaní,Bosconia,Cesar,5,80,-73.95,9.93,15.1,28.4,63.8,160.5,179.2,137.3,122.9,149.8,172.5,177.1,129.9,30,1366.5
25021240,PM,Chimichagua,Chimichagua,Cesar,5,138,-73.81,9.26,16.3,32.5,73,191.8,263.6,178,167.5,201.2,309.4,346.3,221.6,57.6,2058.8
25020240,PM,El Canal ,Chimichagua,Cesar,5,70,-73.89,9.41,14.5,34.9,65.9,148.7,181.5,130.1,104.9,189.5,213.1,242.2,164.3,50.4,1540
25020270,PM,Saloa,Chimichagua,Cesar,5,90,-73.73,9.19,18.5,35.5,77.5,178.6,299.8,151.9,137.3,192.2,267.4,348.1,265.8,111.3,2083.9
25020260,PM,Rincón Hondo,Chiriguaná,Cesar,5,100,-73.49,9.4,30.8,56.6,137.7,211.3,296.4,222.9,204.8,262.4,341.6,375.4,310.4,107.2,2557.5
25020690,PM,Poponte,Curumaní,Cesar,5,500,-73.41,9.42,16.9,43.3,97,172.9,232.4,198.9,158.3,171.8,192.4,247.2,196,55.1,1782.2
25020660,PM,Zapatoza,Curumaní,Cesar,5,90,-73.75,9.01,22.2,30.5,81.3,159.3,244.4,149.4,125.9,173.6,223.7,294.5,235.3,71.4,1811.5
28040310,PM,El Molino,El Paso,Cesar,5,110,-73.74,9.78,8.8,35.4,71.4,153.6,183.5,117.3,95.2,173.1,161.1,208.3,130.7,37.8,1376.2
28040350,PM,El Paso,El Paso,Cesar,5,30,-73.74,9.66,10.8,26.7,55.5,121.9,176.4,133.9,91.3,126.8,160.8,201.7,158.4,34.8,1299
25020280,PM,La Loma,El Paso,Cesar,5,30,-73.61,9.61,9.6,23.5,68.3,137.2,200,143,109.4,169.2,233.6,222.2,180.9,44,1540.9
23210160,PM,Gamarra,Gamarra,Cesar,8,150,-73.74,8.33,9.8,15.2,29.4,119.2,182,165.2,122.2,165.7,198.4,166.8,121.3,28.4,1323.6
23210010,PM,Puerto Mosquito,Gamarra,Cesar,8,90,-73.76,8.19,5.8,14,34.8,127,195.8,225.7,145.3,189.4,224.6,185.4,106.7,25,1479.5
25020230,PM,La Jagüa,La Jagüa de Ibirico,Cesar,5,170,-73.34,9.56,22.5,42.5,109.9,159.6,275.5,197.9,141.5,223.6,269.9,276.4,220.2,53.9,1993.4
28010040,PM,Manaure,Manaure Balcón del Cesar,Cesar,5,740,-73.03,10.39,19.6,41.4,88.5,197.4,260.3,153,106.4,198,256.4,366.7,235.1,54.2,1977
25020670,PM,La Raya,Pailitas,Cesar,5,500,-73.56,9.05,9.2,25.7,79.4,170.1,208.2,174.7,149.9,199.3,263,282.2,190.1,41.5,1793.3
25021640,PM,Santa Isabel,Pelaya,Cesar,5,40,-73.7,8.71,15,28.8,89.3,136.7,190.5,167.5,121.8,199.2,218.1,235.9,211,52.8,1666.6
28040010,PM,Pueblo Bello,Pueblo Bello,Cesar,5,1000,-73.59,10.41,14.5,35.8,70.9,193.9,293.7,203.9,144.8,253,308,381.1,232,71.8,2203.4
23190580,PM,Hacienda San Daniel ,Río de Oro,Cesar,8,75,-73.62,8.09,23.9,28.2,51.7,170.1,236.3,231,181.9,208.3,240.4,230,133.1,50.3,1785.2
23190480,PM,Los Ángeles,Río de Oro,Cesar,8,228,-73.51,8.1,29.5,42.2,67.2,192.2,245.5,176.8,145.1,181.9,216.5,226.1,172.4,47.2,1742.5
16050060,PM,Río de Oro,Río de Oro,Cesar,8,1200,-73.39,8.29,19.9,24.5,52.2,120.5,158.2,110.6,107.9,139.8,179.3,145.5,93.7,40.8,1192.9
23190110,PM,El Líbano ,San Alberto,Cesar,8,164,-73.43,7.84,51.2,73.4,154.8,306.6,291.5,188.2,178,187.9,233.7,318,259.6,139.2,2382.1
23190810,PM,Los Planes ,San Alberto,Cesar,8,650,-73.32,7.81,84.5,87.5,206.3,289.5,278.2,176.1,132.7,164.9,206.5,329.7,311.7,171.7,2439.3
23190500,PM,San Alberto,San Alberto,Cesar,8,134,-73.39,7.76,61,86.9,140.7,288.7,308.1,189.7,148.4,169.5,222.8,316.1,277,137.7,2346.6
28020590,PM,Leticia,San Diego,Cesar,5,140,-73.22,10.15,19.7,32.2,64.2,148,177.5,112.7,93.3,103.5,144.7,191.3,142.7,42.3,1272.1
28020410,PM,San Benito,San Diego,Cesar,5,150,-73.32,10.18,13.6,18.9,39.8,141.2,168.2,139.8,101.5,125.1,148,184.5,158.6,41.2,1280.4
28020420,PM,San Gabriel,San Diego,Cesar,5,70,-73.55,9.84,11.3,23.7,112.1,174.2,202.4,153.3,131.3,153.1,164.5,165.6,148.6,55,1495.1
23190520,PM,La Dorada,San Martin,Cesar,8,271,-73.44,8,59.1,59.3,152,308.6,370,206.9,202.8,187.1,275.9,396.2,277.2,141.8,2636.9
25020090,PM,Tamalameque,Tamalameque,Cesar,5,20,-73.82,8.86,14.5,33.7,79.1,131.7,256.5,174.5,153.2,198.1,253.3,313.2,232.3,67.8,1907.9
28010360,PM,Atánquez,Valledupar,Cesar,5,800,-73.35,10.7,35.1,19.8,51.5,150.6,250.7,130.6,129.4,199.5,279.7,343.7,261.2,42.1,1893.9
28030190,PM,Caracolí,Valledupar,Cesar,5,220,-73.73,10.09,10.2,31.8,44.6,135.5,105.1,99.1,106.9,108.5,127.2,139.4,90.8,40.1,1039.2
28035020,CO,El Callao,Valledupar,Cesar,5,110,-73.32,10.36,9.3,11.5,39,124.4,179,121.8,95.2,133.4,159.3,190.5,116,39.3,1218.7
28020150,PM,Hacienda La Esperanza ,Valledupar,Cesar,5,60,-73.67,10.03,7.7,25.1,63.1,106.8,145.1,102.2,114.5,146.6,148.4,180,156.7,43.9,1240.1
28010370,PM,París de Francia,Valledupar,Cesar,5,180,-73.33,10.31,8.1,17.1,54.6,140.9,196.4,122.1,112.2,159.7,178,198.4,121,41.7,1350.2
28010090,PM,Patillal,Valledupar,Cesar,5,450,-73.21,10.7,5.4,9.2,20.7,115.2,185.8,108,69.9,119.2,159.2,225.6,132.3,33.8,1184.3
28030220,PM,San Ángel,Valledupar,Cesar,5,244,-73.44,10.35,3.6,17.7,41.9,100.9,144.1,100.5,74.6,113.3,138.8,173.1,92,14.4,1014.9
28010070,PM,Villa Marlene,Valledupar,Cesar,5,120,-73.47,10.19,12.1,16.7,59.9,114,178.7,129.9,101.8,158.4,192,214,156.6,28.4,1362.5
11150030,PM,Acandí,Acandí,Chocó,1,2,-77.28,8.53,130.9,82.1,117,291.2,386.3,270.1,297.2,276.4,204.9,229.9,269.2,281.5,2836.7
11080010,PM,Bellavista,Bojayá,Chocó,1,15,-76.89,6.56,363.2,296.2,284.2,447.3,488.4,416.4,513.2,489.1,404,417.4,482.3,470.3,5072
11090010,PM,Opogadó,Bojayá,Chocó,1,50,-76.97,6.81,325.1,229.2,278,463.4,545.9,452.4,505.9,484.8,419.1,419.5,492,433.4,5048.7
11010010,PM,La Vuelta,Cértegui,Chocó,1,98,-76.54,5.46,576.5,546.6,565.1,696.9,812.3,741.8,735.6,807.7,825.7,786.2,770,668.5,8532.9
11020010,PM,Carmen de Atrato,El Cantón del San Pablo,Chocó,1,1850,-76.14,5.91,120.3,132.6,165.7,216.9,279.7,242.9,253.6,221.6,230.5,261.8,260.5,162.4,2548.5
11020050,PM,El Pinon,El Cantón del San Pablo,Chocó,1,715,-76.25,5.76,501.8,387.9,481.7,589.6,797.4,610.5,540.6,571.6,607.3,753.2,871.6,636.2,7349.4
11050060,PM,Alto del Buey,Medio Atrato,Chocó,1,100,-76.92,6.11,397.4,343.9,382.7,519.1,546.9,510.9,539.9,548.6,449.5,454.8,488.9,468.4,5651
11050030,PM,El Buey,Medio Atrato,Chocó,1,25,-76.82,6.1,477.7,348.1,380,523.3,585.7,591.7,642.3,654,561.9,546.6,542.9,509.7,6363.9
54020010,PM,Andagoya,Medio San Juan,Chocó,9,62,-76.7,5.1,605.1,591.6,618.9,625.1,733.2,603.1,625.3,699.2,653.5,658.7,554.6,596.5,7564.8
54020080,PM,Bebedo,Medio San Juan,Chocó,9,35,-76.83,4.93,684.7,566.8,602.7,681.6,733.8,711.9,809.2,827.8,759.6,737.9,694.5,727.1,8537.6
54020020,PM,Novita,Nóvita,Chocó,9,71,-76.61,4.96,691.9,638.5,669.5,815.1,855.7,658.8,627.5,816,823.9,926.7,916.7,751.6,9191.9
11045010,SP,Aeropuerto El Caraño,Quibdó,Chocó,1,75,-76.64,5.69,540.9,478.9,541.9,709,725.4,757.1,806.3,867.3,708.1,616.5,675.7,638.4,8065.5
11050010,PM,Tagachí,Quibdó,Chocó,1,20,-76.73,6.22,462,400.6,416.6,603.3,731.9,735.3,748.1,691,744,716.6,672.2,660,7581.6
11040010,PM,Tutunendo,Quibdó,Chocó,1,54,-76.54,5.74,888.1,751.2,766.5,974.6,1067.1,981.9,1044.9,1089.2,1087.1,952.5,1008.6,892.3,11504
11120040,PM,Riosucio,Riosucio,Chocó,1,8,-77.12,7.44,67.7,60.9,104.4,191.3,288.7,267.7,329.8,333,314.9,225.2,253,167.7,2604.3
54020050,PM,El Sinaí,San José del Palmar,Chocó,9,1870,-76.21,4.83,467.6,381.5,378.4,454.6,486.2,346.8,307.5,341.8,392.2,553.6,654.7,526.6,5291.5
11150020,PM,Tanela,Unguía,Chocó,1,2,-77.04,8.16,104.9,81,117,237.4,289.3,282.7,349.7,332.5,290.6,207.7,248.8,194.4,2736
11150010,PM,Titumate,Unguía,Chocó,1,11,-77.08,8.31,118.9,91.8,112.2,358.6,396.8,329.2,402.7,391,323,282.5,316.1,235.4,3358.2
11130010,PM,Unguía,Unguía,Chocó,1,14,-77.09,8.04,46.6,53.7,72.9,180.7,235,243.3,278.2,278.5,199.7,197.5,212.7,138.9,2137.7
25020780,PM,Cecilia,Ayapel,Córdoba,2,20,-75.03,8.46,23,19.3,39.6,144.4,304,297,384.5,427.2,332.4,312.1,204.5,85.4,2573.4
25020480,PG,Los Pájaros  ,Ayapel,Córdoba,2,25,-74.87,8.34,16.4,38.4,51.2,222.3,316.4,297.6,417,412.6,315.5,369,280.3,77.8,2814.5
25021010,PM,Buenavista,Buenavista,Córdoba,2,110,-75.47,8.22,16.9,30.9,48.3,182.6,304.6,336.4,338.9,362,364,322.5,186.1,51.5,2544.7
12040020,PM,Canalete,Canalete,Córdoba,2,40,-76.24,8.79,19,15,27.4,111,204.6,159.8,162.1,195.5,182.8,178.9,142.9,57.8,1456.8
13075010,CO,Chima,Chima,Córdoba,2,20,-75.62,9.15,17.8,17.6,24.8,94.7,173.5,153.8,152.7,178.5,174,136.6,84.7,38.5,1247.2
25020730,PM,Chinú,Chinú,Córdoba,2,125,-75.39,9.12,20.3,18.9,36.4,98.8,185.6,159.3,168,167.6,197.9,156,101.2,30.5,1340.5
13070060,PM,Ciénaga de Oro,Ciénaga de Oro,Córdoba,2,10,-75.63,8.87,21.2,26.6,34,124.6,206.3,166.4,177.9,210.8,241.2,181.7,115.7,43.6,1550
13075020,CO,El Salado,Ciénaga de Oro,Córdoba,2,40,-75.58,8.91,16.7,21.3,28.1,114,188.9,154.7,171.3,195,193.5,153.5,108,43.3,1388.3
25020700,PM,La Apartada,La Apartada,Córdoba,2,50,-75.34,8.05,12.9,31.7,59.5,148.7,226.5,212.1,254.6,283,254.2,195.3,128.9,46.1,1853.5
13085020,CO,Lorica,Lorica,Córdoba,2,30,-75.84,9.25,11.4,14.4,25.7,94.4,154.9,148.7,148.4,172,173.8,149.7,126.3,37.3,1257
13070020,PM,Momil,Momil,Córdoba,2,20,-75.69,9.23,14.3,20.4,23,91,193.1,180.4,173.1,207.2,225,141.6,113.4,49.9,1432.4
25025160,CO,Hacienda Cuba,Montelíbano,Córdoba,2,50,-75.4,8,14.6,34.9,65.9,173.2,300.3,330.4,351.7,382.1,333.5,288,175.1,56.3,2506
25010080,PM,Pica Pica,Montelíbano,Córdoba,2,100,-75.68,8.03,25.3,37.5,65.8,142.3,247.9,302.8,272.4,296.7,245.3,208,126.7,57.1,2027.8
25010100,PM,San Francisco Rayo,Montelíbano,Córdoba,2,160,-75.76,8.13,29,37.5,51.4,159.2,228.8,258.5,242.6,240.1,218.2,200.2,139.4,50.8,1855.7
13085040,SS,Aeropuerto Los Garzones,Montería,Córdoba,2,20,-75.83,8.83,8.2,11.9,30.5,104.9,191.4,143.8,164.3,164.3,206.6,146.8,102.7,43.9,1319.3
13070070,PM,Boca de La Ceiba,Montería,Córdoba,2,20,-75.86,8.83,13,19.9,32.7,110.7,194.5,160,194.3,185.1,208.3,149.7,113.8,35.5,1417.5
13060020,PM,Buenos Aires,Montería,Córdoba,2,55,-75.77,8.48,24,29.6,48.4,113.3,207.2,187.5,169.2,221,205.4,163.1,97.7,47.8,1514.2
13050020,PM,Hacienda Santa Cruz,Montería,Córdoba,2,220,-76.12,8.67,29.8,18.8,33.1,118.2,162.3,155.5,154.7,169.4,156.2,135.8,112.1,54.8,1300.7
13050030,PM,Loma Verde,Montería,Córdoba,2,100,-76.18,8.5,22.4,21.9,42.4,103.1,179,170.7,177.5,194.1,173.3,152.4,125.6,51.5,1413.9
13070280,PM,Sabanal,Montería,Córdoba,2,10,-75.75,8.79,14.6,16.7,32.9,112,188.7,147.4,191.8,186.3,224.6,150.1,123.3,34,1422.4
13060010,PM,San Anterito,Montería,Córdoba,2,75,-75.86,8.56,22.8,32.4,42.2,120.7,190.3,175.9,152.1,185.6,184.9,145.5,100.5,46.5,1399.4
13050010,PM,Santa Lucia,Montería,Córdoba,2,120,-76.05,8.85,13.5,10.5,37.8,101.5,169.8,150.8,175.6,189.6,190.1,160.5,130.9,46.4,1377
25015010,CO,Centro Alegre,Planeta Rica,Córdoba,2,170,-75.63,8.18,20.5,24.2,68.4,151.3,220.2,227,241.3,210.1,221.9,165.1,134.3,46.2,1730.5
12040010,PM,Jaramagal,Puerto Escondido,Córdoba,2,90,-76.22,8.9,13.8,13.6,33.2,91.3,213.6,165.9,165.9,184.6,188.3,175.5,134.8,59.9,1440.4
25010110,PM,Hacienda Las Acacias ,Puerto Libertador,Córdoba,2,80,-75.65,8.01,20.3,25.8,78.9,148.6,243.3,278.1,269.9,289.2,248.6,225.9,160.1,66.6,2055.3
25020140,PM,Sahagún,Sahagún,Córdoba,2,60,-75.45,8.95,19.2,31.7,43.3,120.4,163,166.9,168.1,205.4,204,160.4,102.6,37.6,1422.6
13070170,PM,Buenos Aires 1,San Carlos,Córdoba,2,9,-75.75,8.77,18.3,18,35.3,111.5,216.2,187.7,207.6,207.7,212.9,168.7,119.6,43.6,1547.1
13070120,PM,Callemar,San Carlos,Córdoba,2,95,-75.68,8.7,29.3,24,48.7,130.7,196.7,190.5,210.6,208.4,210.2,180,114.4,58.5,1602
13070110,PM,Carrizal,San Carlos,Córdoba,2,40,-75.75,8.68,19.6,26.6,41.8,121.9,201.8,164.8,201.6,213.1,185.6,167.9,135.6,54.7,1535
13070190,PM,Coroza 2,San Carlos,Córdoba,2,9,-75.77,8.8,10.6,20,30.9,88.6,203.6,146.9,181,176,212.6,163.4,107.8,44,1385.4
13070090,PM,San Carlos,San Carlos,Córdoba,2,60,-75.7,8.79,26.2,19.9,36.3,105.1,235.3,153.6,173.9,218.9,252.6,241.5,152,51.2,1666.5
13070100,PM,Santa Rosa,San Carlos,Córdoba,2,140,-75.6,8.74,17.5,28.9,54.6,144.1,215.7,171.5,201.5,217.9,220.9,191,149,57.7,1670.3
25010060,PM,Uré,San José de Uré,Córdoba,2,200,-75.54,7.79,37.5,57.3,106.2,234,391.1,313.5,335.3,348.3,345.3,354.5,270.9,127.5,2921.4
13070180,PM,Carrillo,San Pelayo,Córdoba,2,20,-75.83,8.98,7.3,10.7,24.2,102.6,187.6,129.1,159.6,189,175.9,142,93.8,35.5,1257.3
13080010,PM,San Antonio,San Pelayo,Córdoba,2,50,-75.95,8.94,14.6,19.8,30.5,114,219.6,145.4,207.9,207.8,224.7,173.1,129.6,49,1536
13060030,PM,Caramelo,Tierralta,Córdoba,2,60,-75.9,8.27,27,36.9,47.2,133.1,220.5,191.5,183.7,207.6,184.8,176,103.7,56.5,1568.5
21190090,PM,Cabrera,Cabrera,Cundinamarca,11,1900,-74.48,3.99,42.9,50.3,76,106.4,114.6,54,48.9,55.1,65.9,119.6,116,57.3,907
24010610,PM,Carmen de Carupa,Carmen de Carupa,Cundinamarca,11,2970,-73.9,5.35,25.7,36.5,57.1,78.7,85.4,39,36.4,36.5,44.2,101.1,73.9,39.5,654
35020240,PG,Choachí,Choachí,Cundinamarca,11,1950,-73.93,4.53,26.9,35.1,65.5,106.6,142.1,130.7,133.6,111.2,77.9,89.3,80.1,39.7,1038.7
35020290,PM,Fómeque,Fómeque,Cundinamarca,11,1900,-73.89,4.49,23.3,42.6,66.9,134.9,154.9,156.7,151.3,120.9,92,108.8,89.5,41.9,1183.7
21190310,PM,El Pinar,Fusagasugá,Cundinamarca,11,1900,-74.33,4.39,141.9,127.3,188.7,181.6,159.5,79.6,78.1,60.4,93.5,208.4,209.6,140.7,1669.3
35060240,PM,Gama,Gama,Cundinamarca,11,2210,-73.61,4.76,24.3,50,77.7,118.6,140.9,177.4,172.4,132.4,87.8,88.8,69.9,32.8,1173
21230090,PM,Arrancaplumas,Guaduas,Cundinamarca,10,235,-74.73,5.2,68.6,83.1,139.6,205.3,197,78,65.7,98.1,165.7,267,206.9,120.3,1695.3
35060150,PM,Tembladares,Junín,Cundinamarca,11,2878,-73.67,4.7,100.4,137.9,221.6,345.8,427.2,496.8,461.9,328.3,234.2,320.8,264.3,129.7,3468.9
35020390,PM,Mundonuevo,La Calera,Cundinamarca,11,2400,-73.87,4.68,33.6,55.5,84.4,132.3,180.8,188.4,206.9,163.3,114.7,135.4,92.5,52.5,1440.3
21206060,ME,Casablanca,Madrid,Cundinamarca,11,2575,-74.25,4.72,20.5,30.9,49.4,81.3,85.6,53.3,40.9,36.5,47.7,77.8,66.7,35.3,625.9
35050010,PM,Medina,Medina,Cundinamarca,3,480,-73.35,4.51,57.2,115.6,187,436,521.5,496.4,448.2,362.7,333.9,353.3,311.7,110.1,3733.6
35050020,PM,San Juanito,Medina,Cundinamarca,3,426,-73.4,4.42,48.6,123.5,205.7,466.4,569.4,501.5,457.8,394.5,364.1,368.3,319.7,114.4,3933.9
21205420,AM,Tibaitata,Mosquera,Cundinamarca,11,2543,-74.21,4.69,21.1,32.6,56.9,92.4,86.1,58.6,44.5,39.2,51.8,87.4,80.1,45.7,696.4
21230060,PM,Nariño,Nariño,Cundinamarca,10,289,-74.83,4.4,54.8,86,107.3,218.1,177.1,66.7,44.3,61.9,127.5,157.1,112,63.2,1276
23065120,CO,La Cabrera ,Pacho,Cundinamarca,11,2000,-74.14,5.14,117.3,114.6,150.9,194.8,143.6,45.6,41.9,48.9,101.1,214.6,206.4,131.2,1510.9
23060150,PM,Puerto Libre,Puerto Salgar,Cundinamarca,10,180,-74.63,5.76,80.5,111.6,188.8,259.2,254.6,143.9,117.6,152.1,197.9,257,208.2,109.1,2080.5
21190350,PM,El Tulcán,San Bernardo,Cundinamarca,11,2700,-74.36,4.15,31.8,46.8,69.9,93,100.7,65.5,52.1,49.6,57.1,94.6,73.9,34.2,769.2
21230070,PM,San Juan de Rioseco,San Juan de Rio Seco,Cundinamarca,10,1364,-74.62,4.85,52.6,97,114.7,190.8,130.4,51.2,41.9,49.9,115.5,188.5,158.3,114.3,1305.1
21201250,PM,San Pedro,Sopó,Cundinamarca,11,2560,-73.97,4.87,32.2,41.5,52,78.4,85.7,64.3,69,56.7,53.7,84.1,76.4,41.5,735.5
21205980,CO,Granja Providencia,Tenjo,Cundinamarca,11,2560,-74.2,4.79,28.4,44.4,74.4,100.2,98.5,67.7,55.4,47.3,66,99.9,86,52.9,821.1
21206140,CO,Tibitoc 2,Tocancipá,Cundinamarca,11,2698,-73.93,4.97,38.5,52.4,73,102,105.8,59.5,56.1,50,61.1,107.8,99.4,52.5,858.2
35060220,PM,La Gloria,Ubalá,Cundinamarca,11,1845,-73.42,4.82,57.1,125.3,168.2,279.7,400.9,435.8,420.9,346.8,254.6,215.9,164.8,93.6,2963.6
35060230,PM,Tres Esquinas,Ubalá,Cundinamarca,11,1943,-73.49,4.78,32.2,91.1,125.4,214.1,301.8,305.7,315.4,244.2,186,159.5,123.4,52.6,2151.5
35060180,PM,Ubalá,Ubalá,Cundinamarca,11,1929,-73.53,4.75,39,88.6,126.8,225,280.6,293.1,282.2,212.7,156.5,146.5,124.1,59.4,2034.5
35020420,PM,Une,Une,Cundinamarca,11,2430,-74.02,4.4,17.3,39.1,57.7,106.1,146.7,124.8,123,98.3,76.9,90.3,68.6,32.8,981.7
23060190,PM,Útica,Útica,Cundinamarca,11,497,-74.49,5.2,64.8,90.6,133.5,176.5,156.7,70.8,55.5,64.3,104.8,223.8,150.2,80.2,1371.7
21201090,PM,Viotá,Viotá,Cundinamarca,11,567,-74.54,4.44,106.1,119.4,167,235.9,222.8,73.3,46.4,44.2,105,238.7,169.8,86.4,1614.9
32150050,PM,Barranco Murciélago,Barranco Minas,Guainía,3,98,-69.59,3.57,80.7,105.7,135.2,281.9,385.8,417,437.4,326.1,238.5,248.2,215.4,125.3,2997.2
21030080,PM,Acevedo,Acevedo,Huila,4,1350,-75.94,1.81,75.1,93.3,133.7,152.6,183.3,194.3,168.9,148.9,135.3,115.1,105,87,1592.5
21030060,PM,San Adolfo,Acevedo,Huila,4,1345,-76.02,1.71,82.7,110.7,149.2,199.7,228.9,261.5,237.4,217.5,170,135.4,117.3,99.9,2010.2
21040020,PM,Antena Tv,Agrado,Huila,4,2210,-75.73,2.33,165.7,156.7,186,183.4,171.4,78.6,77.3,39.6,88.4,207.9,244.9,218.3,1818.2
21040040,PM,Puente Balseadero,Agrado,Huila,4,688,-75.65,2.23,67.8,90.6,105.1,104.3,99.2,67.7,49.5,27.5,48.2,122.5,125.7,78,986.1
21100140,PM,La Arcadia,Algeciras,Huila,4,1380,-75.4,2.43,146.8,121.3,171.7,199.2,177.6,117.7,88.9,74,88.2,217.9,210.3,149.7,1763.3
21100080,PM,Nuevo Paraíso,Algeciras,Huila,4,1525,-75.21,2.62,74.5,93.4,125,134.6,131.5,107,84.1,66.9,86.1,128.4,134.4,92.8,1258.7
21140030,PM,Arizona,Baraya,Huila,4,638,-74.94,3.28,49.2,59.4,101.3,87,85.1,49.2,46.2,35,52.9,102.6,130.8,80.2,878.9
21110070,PM,Baraya,Baraya,Huila,4,615,-75.06,3.15,61,84.4,121,145.8,103.6,47.9,40.4,27.9,45.5,152.3,185.4,121,1136.2
21105050,CP,Los Rosales ,Campoalegre,Huila,4,553,-75.42,2.6,113.3,108.3,158.8,138.9,102.8,37.3,31.7,23.6,46.2,164.6,208.5,177.5,1311.5
21140010,PM,El Venado,Colombia,Huila,4,584,-74.9,3.29,53.9,48.6,105,122,101.4,47.3,46,35,44.4,118.2,124.2,80.1,926.1
21140080,PM,Miraflores,Colombia,Huila,4,1049,-74.74,3.48,57.8,63.4,93.6,114.9,126.9,72,62.1,41.2,45.3,139.6,149.9,67.3,1034
21020040,PM,El Viso ,Elías,Huila,4,1017,-75.91,2.02,75,103.2,121,146.5,127.1,90.3,74.4,57.7,66.1,107.5,134.8,88,1191.6
21020050,PM,Puente Saladoblanco,Elías,Huila,4,1046,-76.01,1.98,81.8,116,138.7,159.1,164.9,124.4,117.6,93.3,83.7,117.9,137.6,92.7,1427.7
21060080,PM,Garzón,Garzón,Huila,4,990,-75.61,2.19,84.1,87.6,112.3,126.7,114.1,100.2,74.7,49.7,57,116.2,114.9,82.8,1120.3
21060040,PM,La Pita,Garzón,Huila,4,1330,-75.55,2.2,100.3,125.9,152.8,173.1,165.6,130.9,104.9,64.8,80.8,147,148,126.2,1520.3
21030110,PM,San Antonio del Pe,Garzón,Huila,4,1190,-75.68,2.08,97.5,136.2,162.1,158.4,156.3,135.2,110.9,79,91.3,149.6,164.9,98.6,1540
21060070,PM,Gigante 2,Gigante,Huila,4,850,-75.54,2.39,83.7,101.9,132.8,117.1,101.3,63.9,57,40,49.4,138.7,130.5,99,1115.3
21060100,PM,Hacienda La Cristalina,Gigante,Huila,4,1460,-75.5,2.32,102.3,131.8,164.6,179.9,171.3,118.1,114.1,74.1,93.5,161.6,158.8,114.1,1584.2
21060110,PM,Rioloro,Gigante,Huila,4,721,-75.62,2.32,80.9,92.4,123.8,110,102.9,52.9,41.6,24.3,48.8,131,135.4,102.1,1046.1
21060090,PM,El Hobo,Hobo,Huila,4,636,-75.44,2.57,109,116.9,168.1,131.8,115.4,35.8,33.6,21.3,57.4,174.1,197.1,161,1321.5
21080130,PG,Hacienda El Totumo ,Íquira,Huila,4,790,-75.62,2.59,200,174.5,231.3,187,140.1,59.7,45.5,31.3,67.8,214.7,296.9,299.5,1948.3
21010170,PM,Escuela Belén,Isnos,Huila,4,1700,-76.17,1.9,97.4,118.9,139.2,165.2,160,158.4,164.3,134.3,119.5,143.9,148.7,117.8,1667.6
21010250,PM,Hornitos,Isnos,Huila,4,2000,-76.25,1.98,106.3,133.7,132.8,144.5,161.9,164.1,157.8,110.2,90.4,123,171.5,125.8,1622
21010060,PM,Medianía,Isnos,Huila,4,1763,-76.17,2.02,118.6,141.2,149,191.9,185.9,181.1,176.3,129.7,106.2,159.7,183.4,131.6,1854.6
21050060,PM,La Argentina,La Argentina,Huila,4,1500,-75.97,2.2,85.8,108.4,142.7,171.6,157.9,92,94.2,57.4,69.6,154.1,153.8,121.8,1409.3
21050190,PM,Hacienda Meremberg,La Plata,Huila,4,2220,-76.12,2.22,106.2,144,181.3,203.9,216.8,185.5,157,119.6,116.5,198.1,174.7,132,1935.6
21050160,PM,San Vicente,La Plata,Huila,4,1745,-76.01,2.32,106.4,126.7,132.9,170.6,144.3,118.4,104,75.9,85.8,155.3,158.8,134.7,1513.8
21050090,PM,Nátaga,Nátaga,Huila,4,1545,-75.81,2.55,173.5,198.2,203.4,208.7,183.1,109.6,88.4,67.5,94.9,200.7,242.3,220.3,1990.6
21050170,PM,Yarumal,Nátaga,Huila,4,1950,-75.76,2.65,118.9,128.7,164,206.6,181.8,119.6,131.9,99,121.4,201.8,209.5,155,1838.2
21115020,SS,Aeropuerto Benito Salas,Neiva,Huila,4,439,-75.29,2.95,101.4,123.6,163.1,148.2,94.9,34.8,31.3,19.9,59.9,204.2,235.9,165.9,1383.1
21130080,PM,Los Organos,Neiva,Huila,4,800,-75.49,3.12,174.2,209.7,249.9,274.6,187.2,80.4,47,48.5,117.9,298.9,311.9,225.9,2226.1
21040030,PM,Oporapa,Oporapa,Huila,4,1614,-76.1,2.03,106.3,109.7,148,168.4,153.1,140.5,122.8,100.3,92.8,141.5,147.3,115.5,1546.2
21050150,PM,Páez Paicol Radio,Paicol,Huila,4,788,-75.76,2.46,216.1,173.6,209.7,168,133.2,51.6,38,29.2,55.8,213.1,241.1,254.4,1783.8
21130060,PM,El Carmen ,Palermo,Huila,4,2250,-75.56,3.01,166.5,167.4,190.1,197.3,173.9,86.1,68.5,71,106.3,238.8,242,158.1,1866
21090020,PM,El Cucharo ,Palermo,Huila,4,620,-75.4,2.86,168.9,168.3,200.3,201.1,135.2,37.4,34,22.7,66.3,278.9,271,216,1800.1
21120130,PM,Hacienda Rionegro ,Palermo,Huila,4,560,-75.43,2.91,150,153.3,190.4,179.9,114.8,42.6,34,20.4,65.6,241.5,244.6,207.1,1644.2
21010100,PM,Palestina,Palestina,Huila,4,1530,-76.13,1.72,85.4,124.9,144.7,172.7,198.2,205.9,187,154.2,120.6,122.8,122.8,109.1,1748.3
21040060,PM,Tres Esquinas,Pital,Huila,4,805,-75.78,2.2,104.6,106.5,134,124.7,104.1,67.3,50.5,30.6,42.8,118.2,143.6,100.5,1127.4
21010110,PM,Insfopal,Pitalito,Huila,4,1265,-76.07,1.84,57.7,96.5,110.2,139.5,145.1,139.3,123.6,102.8,82.4,112.4,108.4,83.5,1301.4
21010040,PM,La Laguna,Pitalito,Huila,4,1334,-76.09,1.96,77.6,109.6,124.2,156.2,146.3,138,118.7,100.4,88.8,113.5,125.3,96.7,1395.3
21010210,PM,Montecristo,Pitalito,Huila,4,1674,-76.19,1.71,129.2,131.7,186.1,212.6,232.8,240.8,209.5,174.7,139,171.5,152.8,119.3,2100
21110440,PM,El Guadual ,Rivera,Huila,4,735,-75.24,2.8,149.1,156.6,212.7,188.9,108.8,49.2,46.9,20.2,68.4,235.5,268,207.2,1711.5
21010220,PM,Morelia,Saladoblanco,Huila,4,1625,-76.19,2.07,147.8,180.5,191.4,212.9,193.3,226.2,221.5,166.9,136.7,232.8,222.3,166.3,2298.6
21010190,PM,Alto del Obispo,San Agustín,Huila,4,1700,-76.25,1.85,84.3,101.8,124.2,170.2,157.3,191,175.3,149.9,97.7,114.8,121.4,92.5,1580.4
21010130,PM,Bajo Frutal,San Agustín,Huila,4,1660,-76.25,1.81,99.2,115,151.7,203.8,204.4,209.1,174.6,138.3,119.7,170.6,154.4,123.2,1864
21010230,PM,Betania Tv,San Agustín,Huila,4,1949,-76.3,1.91,94.2,115.8,117,144.5,139.8,145.9,137,102.2,86.8,121.8,135,117.7,1457.7
21010140,PM,La Candela,San Agustín,Huila,4,1940,-76.36,1.86,116,137.9,163.8,205.1,214.8,234.6,211.9,176.5,142.9,175.3,160.9,129.8,2069.5
21015030,CP,Parque Arqueológico,San Agustín,Huila,4,1800,-76.29,1.89,88,100.1,128.4,157,147.7,154.6,138.4,103.8,92.7,115.2,141,117.2,1484.1
21010200,PM,Sulchomisco,San Agustín,Huila,4,1800,-76.32,1.85,100.8,123.8,143.4,207.4,213.6,214.6,202.8,153.9,130.8,159.8,129,120.7,1900.6
21010160,PM,Villa Fátima,San Agustín,Huila,4,1724,-76.39,1.9,90.7,97.7,105.5,157.5,153.4,184.5,175.4,141.9,102.1,113,147.1,104.4,1573.2
21040050,PM,Tarqui,Tarqui,Huila,4,830,-75.82,2.11,71.2,101.2,117.4,111.4,95.1,64.5,53.2,37.1,38.9,95.8,122,83,990.8
21115070,CO,El Portal,Tello,Huila,4,1300,-75.07,3.01,94.6,108.3,174.2,181.2,142.6,72.4,61.8,43.8,67.3,200.5,210.2,142.7,1499.6
21110180,PM,Hato Bogotá,Tello,Huila,4,591,-75.16,3.04,69.5,89.8,147.2,128.4,93.8,32.7,29.2,14,46.3,183.5,200.4,141.7,1176.5
21110160,PM,Mesa Redonda,Tello,Huila,4,500,-75.2,3.12,76.2,91.5,123.4,127.7,94.1,35,35.5,22.6,49.7,173.9,186.1,123.4,1139.1
21080080,PG,La Mina,Teruel,Huila,4,2301,-75.63,2.79,121.4,142.5,185.2,185.4,152.7,72.3,61.9,59.1,109.8,174,179,132.1,1575.4
21080100,PM,Las Herreras,Teruel,Huila,4,1485,-75.61,2.77,179,202.2,199.2,226,163.8,90,79.7,50.7,106.8,211.5,246.3,220.4,1975.6
21050140,PM,El Hatillo,Tesalia,Huila,4,900,-75.62,2.51,183.1,169.6,229.6,178.7,114.6,51.3,35.2,23.7,61.5,204.1,276.1,254.3,1781.8
21050290,PM,Tesalia 2,Tesalia,Huila,4,825,-75.73,2.49,171.8,155.5,176.9,173.1,130.5,46,42.6,26.3,45.8,184.7,228.3,231.9,1613.4
21110290,PM,La Victoria,Villavieja,Huila,4,400,-75.17,3.35,79,98.9,148.9,169.5,117.1,36.3,31.4,23.3,72.4,196.2,216.6,168.1,1357.7
21110120,PM,La Yegüera ,Villavieja,Huila,4,400,-75.2,3.31,73.2,82.2,114.2,121.7,99.8,27.2,24.1,19.4,61.9,131.3,179.1,121.1,1055.2
21110330,PM,Polonia,Villavieja,Huila,4,429,-75.22,3.19,79.1,96.4,132.6,142.6,91,31.9,33.8,24.9,57.6,168.4,207.2,137.9,1203.4
21145040,AM,San Alfonso,Villavieja,Huila,4,440,-75.11,3.37,54.5,74.6,135,131.7,85.7,26.6,25.4,16.7,63.1,165,174.8,125.6,1078.7
21115060,CO,San José,Villavieja,Huila,4,400,-75.18,3.33,73.9,72.6,123.3,134.8,100.7,28.6,29.2,20.2,71.9,159.5,191,136.3,1142
21140100,PM,San Juanito,Villavieja,Huila,4,368,-75.1,3.42,71.1,93.6,155.9,144.9,102.4,35.2,26.4,23.5,66.7,179.5,201.4,159.2,1259.8
21115080,CO,Ferrocarril Villavieja,Villavieja,Huila,4,430,-75.25,3.18,67,88,128.8,131.2,95.2,29.4,29.8,20.2,68.5,158.9,183.6,126.3,1126.9
21080070,PM,Hacienda Santa Rosa,Yaguará,Huila,4,650,-75.58,2.64,220.6,147.5,227.1,219.5,153.6,44.6,33.5,18,76.5,228.5,308.1,290.7,1968.2
21080030,PM,Yaguará,Yaguará,Huila,4,600,-75.53,2.67,163.2,152.7,222.9,168.5,126.4,36.3,37.2,18.8,49.9,196.9,265.9,228.9,1667.6
15060020,PM,Cuestecita,Albania,La Guajira,5,93,-72.61,11.2,9.6,7.9,13.4,85.2,143.2,83.4,40,104.4,173.9,159.4,142.7,65.4,1028.5
15060040,PM,Lagunitas,Barrancas,La Guajira,5,900,-72.88,11.03,7.8,18,18.1,111.5,160.8,102,75.1,99.5,147,178.5,136.4,41,1095.7
15060060,PM,Las Lomitas ,Barrancas,La Guajira,5,300,-72.68,10.94,11.5,7.1,21.2,90.7,139.8,105.2,68.8,146.7,172.2,201.7,117.5,66.7,1149.1
15030010,PM,Dibulla,Dibulla,La Guajira,5,5,-73.31,11.28,16.4,19,25.1,104.6,147.7,79.8,40.7,113.3,200.9,297.1,207.6,40.9,1293.1
15060050,PM,Sabanas de Manuela,Distracción,La Guajira,5,420,-73.05,10.95,7.4,7.7,18.5,98.5,152.3,94.8,68.6,109,151.6,163,98.4,31.3,1001.1
15060150,PM,El Conejo ,Fonseca,La Guajira,5,350,-72.8,10.78,2.3,5.2,16.9,61.4,117.3,60.2,57.4,68.7,107.9,146.6,79.4,27.8,751.1
15070160,PM,Escuela Ceura,Maicao,La Guajira,5,85,-72.47,11.44,5,8.7,3.6,41.9,98.7,45,13.6,49,119.8,141.3,101.3,21.6,649.5
15070230,PM,Guayabal,Maicao,La Guajira,5,85,-72.55,11.44,2.3,5.1,7.7,47.8,112.6,66.7,22.9,105,123.8,182.8,114,38.5,829.2
15070130,PM,El Pájaro,Manaure,La Guajira,5,2,-72.68,11.71,1.6,2.4,3.5,13.8,47.6,22,10.1,30.8,67.8,128.9,78.7,10.1,417.3
15070150,PM,Hacienda Caracas,Manaure,La Guajira,5,80,-72.56,11.48,5,1.6,7,35.5,83.4,39.8,13.3,58.6,120.4,133.8,68.2,31.3,597.9
15070140,PM,Mayapo,Manaure,La Guajira,5,3,-72.79,11.65,6.3,1.5,3.6,21.9,50.4,26.3,18.2,41.5,114.9,150.9,96.1,52.2,583.8
15050010,PM,Camarones,Riohacha,La Guajira,5,5,-73.05,11.43,3.4,2.7,10.4,34.7,97.2,43.4,29.9,81.7,138.4,175.9,76.1,32.8,726.6
15060270,PM,La Arena,Riohacha,La Guajira,5,120,-72.73,11.19,8.1,9.8,20.3,120.8,152.1,77.6,65.1,115.6,209.3,290.7,178.9,74.2,1322.5
15060010,PM,Los Remedios ,Riohacha,La Guajira,5,10,-72.91,11.38,9.9,10.8,14,67.1,123.6,105.1,54.9,124.3,192.6,265.8,115.5,36.6,1120.2
15060080,PM,Cañaverales,San Juan del Cesar,La Guajira,5,230,-72.85,10.76,7.9,10,29.7,113.6,170.7,107.5,91.5,129.6,138.7,186.8,103.4,34.4,1123.8
28010200,PM,Hatico de los Indios,San Juan del Cesar,La Guajira,5,594,-73.11,10.86,3.9,2.9,14.4,61.7,157.5,75.2,55.6,98.1,177.1,147.4,90.8,28.4,913
15070060,PM,Buenos Aires,Uribia,La Guajira,5,40,-71.42,12.27,16.7,6.4,1.9,9.6,44.7,10,8.7,16.8,60.5,150.4,94.9,55.5,476.1
15070190,PM,Caimito,Uribia,La Guajira,5,100,-71.51,12.27,10.4,4,2.5,8.3,41.3,14.5,4.9,27.7,60.1,121.1,100.6,44.6,440
15070100,PM,Carrizal,Uribia,La Guajira,5,5,-72.18,12.01,7,5.4,2.4,22.2,45,27.8,13.8,51.1,92.8,216.6,92.9,48.6,625.6
15070070,PM,Irraipa,Uribia,La Guajira,5,65,-71.95,12.13,3.2,1.1,1.8,15.8,30.4,7.2,8.5,18.8,69.1,109.1,59.2,20.3,344.5
15080080,PM,Jasay,Uribia,La Guajira,5,35,-71.96,11.79,1.3,3.4,1.6,11.1,39.8,6.7,8,26.5,43.2,66.2,44.9,8.6,261.3
15070110,PM,Jojoncito,Uribia,La Guajira,5,120,-71.97,11.81,6,1.5,5,31.9,54.4,15.2,7.7,39.4,62.6,103.3,76.7,11.9,415.6
15070080,PM,Kauraquimana,Uribia,La Guajira,5,35,-71.46,12.22,12.8,9.3,3.9,19.7,42.2,12,5,30.3,86.6,152.3,119.9,72.7,566.7
15070240,PM,Orochon,Uribia,La Guajira,5,100,-72.19,11.81,9.7,2.7,10.2,17.9,52.4,7.7,8,35.5,89.2,128.3,87.3,32.1,481
15070090,PM,Perpana,Uribia,La Guajira,5,65,-71.82,12.09,6.5,5,4,10.8,48.5,10.8,10.9,32.6,71.5,130.3,79.6,21.1,431.6
15080010,PM,Puerto Estrella,Uribia,La Guajira,5,5,-71.31,12.35,8,2.8,2.6,4.7,20,1.8,2.6,10.3,35.1,78.4,72.2,46.9,285.4
15080090,PM,Puerto López,Uribia,La Guajira,5,2,-71.28,11.93,2,2.2,2.2,0.4,16.3,7.3,12.8,22.2,29,73.3,63.1,29.1,259.9
15085040,CO,Rancho Grande,Uribia,La Guajira,5,50,-71.83,11.69,6.7,4.4,1.2,6,34.7,10.4,7.2,30.5,74.4,97,51.7,17.8,342
15070010,PM,Santana Urraich,Uribia,La Guajira,5,30,-72.05,12.09,2.5,4,1.9,13.1,67.9,11.6,6,35,82,130.1,72.8,20,446.9
15080040,PM,Siapana,Uribia,La Guajira,5,145,-71.32,12.07,13.9,2.3,2.3,4,11.9,3.4,4.6,19.1,49.7,110.8,91.9,65,378.9
15080070,PM,Sillamaná,Uribia,La Guajira,5,115,-71.52,11.9,3.1,2.3,1.3,6.7,31.6,9.9,6.5,24.4,36.3,89.6,46.8,14.2,272.7
15080020,PM,Sipanao,Uribia,La Guajira,5,100,-71.27,12.12,24.2,10.9,5.2,19.2,38.8,5.4,5.4,15.6,48.1,102,116.5,63.4,454.7
28040150,PM,Bellavista,Algarrobo,Magdalena,5,156,-74.04,10.31,18.6,32.9,79,150,178.1,121,129.6,140.6,164.7,228.4,145.3,42.1,1430.3
29060060,PM,El Cenizo ,Aracataca,Magdalena,5,450,-74.07,10.65,28.3,32.7,65,253,332.5,255.6,242.9,271.1,336.7,375.9,294.1,93.3,2581.1
29060200,PM,La María ,Aracataca,Magdalena,5,30,-74.19,10.54,4.5,7.3,39.2,112.3,201.4,140.8,119.6,170.7,221.2,264.2,138.1,41.8,1461.1
25021250,PM,Campo El Difícil ,Ariguaní,Magdalena,5,120,-74.12,9.91,17.5,25.4,74,124.7,169.1,117.1,106.7,149.1,172.9,190.8,136.9,44.8,1329
28040360,PM,Hacienda La Cabaña ,Ariguaní,Magdalena,5,100,-74.08,9.86,25.7,45.1,85.2,171.3,202.5,115.2,122.6,179.9,181.8,177.1,147.3,43.1,1496.8
28040300,PM,Villa Concepción,Ariguaní,Magdalena,5,120,-73.86,9.71,18.6,37.1,79.8,170.6,178.5,119,111.9,135.7,163.6,176,147.8,34.7,1373.3
29060340,PM,El Palmor ,Ciénaga,Magdalena,5,1200,-74.03,10.77,23.6,41,91.4,227.3,313.5,226.4,155.2,230.7,278.8,386.1,247.9,70.1,2292
29060070,PM,San Pablo,Ciénaga,Magdalena,5,800,-74.03,10.81,24.9,34,81.3,213.7,347.2,252.8,238.7,295.9,319.6,389.2,202,86.8,2486.1
29060310,PM,Sevillano,Ciénaga,Magdalena,5,5,-74.25,10.93,0.4,0.2,5.5,30.4,88,125,84.5,148.3,179.2,251.8,117.1,28.8,1059.2
25021040,PM,Menchiquejo,El Banco,Magdalena,5,25,-74.04,9.19,24.4,29.3,74.7,195.7,250.2,197.9,149.5,220.9,251.5,310.9,170.5,62.1,1937.6
29050010,PM,Tiogollo,El Piñón,Magdalena,5,41,-74.73,10.34,14.2,22.9,55.2,118.5,146.4,147.9,150,179,174.6,195.3,95.8,37.9,1337.7
29060350,PM,Bayano,El Retén,Magdalena,5,30,-74.3,10.63,5.8,2.6,15.6,87.1,180.2,140.9,105.7,161.8,213.8,276.9,117.8,29,1337.2
29060030,PM,El Bongo ,El Retén,Magdalena,5,20,-74.38,10.65,3.5,2,14.7,84.7,180.9,165.7,127.8,190.7,218.4,302.4,132.2,40.9,1463.9
29060150,PM,El Destino ,El Retén,Magdalena,5,20,-74.22,10.57,3.2,10.4,24.6,98.6,204,154.9,142.6,179.4,223.3,281.6,147.8,55.9,1526.3
29060170,PM,El Gavilán,El Retén,Magdalena,5,20,-74.33,10.68,1.9,2.1,10.1,52.6,112.6,129.2,90.8,125.7,152.5,201.9,96.2,22.1,997.7
29060190,PM,La Florida ,El Retén,Magdalena,5,26,-74.26,10.61,2.5,7.4,11.5,92.1,174.2,150.2,122.4,157.9,210.3,258.3,121.6,40.6,1349
25021200,PM,Los Negritos ,El Banco,Magdalena,2,26,-74.08,9.03,23.6,22.7,69.1,166.1,291.8,226.6,187.3,265.5,328.9,404.7,267.2,104.6,2358.1
29060560,PM,Doña María,Fundación,Magdalena,5,50,-74.18,10.38,7.9,17.9,48.3,116.5,127.2,107.9,73.1,135.9,176.3,208.3,142.8,30.7,1192.8
29060040,PM,Fundación,Fundación,Magdalena,5,40,-74.18,10.52,7.9,10.5,36.7,113.3,186.9,137.9,138.9,159.2,220.8,237.7,138.2,40.6,1428.6
29060100,PM,Santa Rosa de Lima,Fundación,Magdalena,5,75,-74.11,10.4,14.7,27,63.7,131.5,191.1,153.2,134.4,157.5,184.1,293.2,165.9,60.6,1576.9
25021620,PM,Irán,Nueva Granada,Magdalena,5,80,-74.32,9.68,38.6,40.5,69.9,136.2,157.4,115.5,119.5,141.4,183.7,197.9,148.6,73,1422.2
25021630,PM,Nueva Granada,Nueva Granada,Magdalena,5,110,-74.39,9.8,38.3,41.5,73.8,140.2,131,146.1,156.4,161.3,161.7,168.3,116.3,54.8,1389.7
29020020,PM,Garrapata,Pivijay,Magdalena,5,60,-74.42,10.32,17.6,20.2,70.7,119.7,182.7,153.2,148.8,184.9,205.8,214.9,143.1,61.7,1523.3
28040100,PM,Monterrubio,Pivijay,Magdalena,5,100,-74.27,10.23,19.3,53,113.4,192.5,184.6,154.5,187.9,222.6,226.8,252.1,173.5,63.6,1843.8
25021600,PM,Apure,Plato,Magdalena,5,85,-74.58,9.87,33.6,41.6,79.4,131,132.7,137.4,137.3,176.8,169.9,147,121.2,62.6,1370.5
25021610,PM,El Agrado,Plato,Magdalena,5,100,-74.5,9.69,28.1,27.5,84.9,145.1,172,133.5,135.4,162.5,177.9,168,165.8,60.8,1461.5
29060180,PM,La Esperanza,Puebloviejo,Magdalena,5,25,-74.31,10.74,1.1,0.5,6.7,73.3,172.3,144.4,120.9,175.7,182.3,225.3,126.9,38.2,1267.6
29060270,PM,Palo Alto,Puebloviejo,Magdalena,5,25,-74.27,10.72,1.6,2.1,7.2,62.3,129.9,135.4,104.9,141.3,161,215,83.1,23.9,1067.7
29060120,PM,Tasajera,Puebloviejo,Magdalena,5,2,-74.36,10.98,1,0.7,2.4,11,37.2,36.5,30.3,69.9,88.5,88.1,37.3,11.8,414.7
29060540,PM,San Rafael,Remolino,Magdalena,5,10,-74.65,10.59,1.7,3.1,17.9,78.2,157.5,132,120,174.4,180.1,188.5,99.1,24.3,1176.8
28040140,PM,San Ángel,Sabanas de San Ángel,Magdalena,5,140,-74.21,10.03,16.2,27.7,61.6,122.3,131.8,102.5,96.7,133.2,160.7,178.2,120.7,29.5,1181.1
29050020,PM,Salamina,Salamina,Magdalena,5,15,-74.79,10.49,1.7,1.3,20.4,75.7,148.3,132.2,108.2,147.4,130.4,136.2,96.3,27,1025.1
28040320,PM,El Brillante,Santa Ana,Magdalena,5,135,-73.96,9.7,21.6,32.6,79.9,164.2,184.1,128.1,114.1,161.1,184.8,206,149.7,34.7,1460.9
25021500,PM,El Pueblito,Santa Ana,Magdalena,5,35,-74.35,9.58,18.5,33.7,58.5,124.5,168.3,123.2,96.5,135.6,134.2,151.4,104.8,50.1,1199.3
15010020,PM,Buriticá,Santa Marta,Magdalena,5,30,-73.76,11.25,48.6,41.4,62.1,153.4,195.3,129.5,109.4,196.1,257.3,387.4,367.2,159.6,2107.3
15010300,PG,Guachaca,Santa Marta,Magdalena,5,20,-73.84,11.26,52.9,42.6,68.9,138.1,178.8,101.5,112.1,171.5,223.4,382,366.3,182.7,2020.8
15010010,PM,Minca,Santa Marta,Magdalena,5,640,-74.12,11.14,5.2,6.7,15.3,95.1,260.6,241.3,253.7,318,410.4,407,224.7,56.1,2294.1
15030020,PM,Palomino,Santa Marta,Magdalena,5,30,-73.57,11.24,26,42.5,25.9,108.5,150.8,106.7,59.5,124.6,195.7,272.9,279.4,86.2,1478.7
15010040,PM,Vista Nieves,Santa Marta,Magdalena,5,1413,-74.08,11.09,11.4,20,25,154.3,316.4,324,331.8,384.2,426.5,399.6,227,67.6,2687.8
25021020,PM,Tierra Grata,Santa Bárbara de Pinto,Magdalena,2,25,-74.74,9.43,3.8,9.8,27.1,89.4,151.5,150.2,112.8,144,144.7,145.6,70.2,34.7,1083.6
25021030,PM,San Zenón,San Zenón,Magdalena,2,25,-74.5,9.25,15.3,21,48.2,125.3,207.5,201.5,173.7,222.7,230.8,238.1,170.6,82.9,1737.6
29060140,PM,El Carmen ,Zona Bananera,Magdalena,5,25,-74.21,10.68,3.6,5.3,13.6,79.6,234.6,209.1,141.4,198.4,228.5,306.6,161.4,34.8,1616.9
29060160,PM,El Enano,Zona Bananera,Magdalena,5,25,-74.19,10.9,0.8,0.6,5.2,40.5,119.3,127.4,96.6,144.9,196.3,207,95,24,1057.6
29060550,PM,El Ruby ,Zona Bananera,Magdalena,5,20,-74.19,10.85,1.6,0.9,4.5,56.7,133.8,126.1,99.9,164.2,194.4,224.4,125.8,39.6,1171.9
29060230,PM,La Sara,Zona Bananera,Magdalena,5,25,-74.16,10.84,3.2,3.2,7,59.4,163,141.3,117,155.8,214.9,216.7,105.7,30,1217.2
29060240,PM,La Unión ,Zona Bananera,Magdalena,5,20,-74.22,10.71,2.9,1.5,7,45.2,149.3,127.1,117,160.6,196.6,235,127.1,47,1216.3
29065020,CO,Padelma,Zona Bananera,Magdalena,5,20,-74.2,10.72,2.4,2.7,10.3,62,154.2,151.3,120,164,182,261.3,125.1,35.5,1270.8
29065030,CO,Prado Sevilla,Zona Bananera,Magdalena,5,18,-74.15,10.76,2.5,3.4,10.6,72.8,179.8,157.2,148.6,185.6,240.9,269.2,137.8,36.7,1445.1
29060280,PM,San Isidro,Zona Bananera,Magdalena,5,25,-74.22,10.9,1.7,0.6,4.7,37.9,110.1,95.9,86.6,112.1,152,189.5,77.6,20.8,889.5
35010020,PM,Acacías,Acacías,Meta,3,525,-73.77,3.99,76.1,126.1,251.5,554.7,660.3,559.5,435.2,375.1,392.9,489.9,473.5,227.8,4622.6
35100020,PM,Cabuyaro,Cabuyaro,Meta,3,180,-72.79,4.28,22.1,62.7,123.6,310.5,372,339.6,292.1,300.2,273.2,262.8,162,40.8,2561.6
35010060,PM,El Toro,Castilla La Nueva,Meta,3,230,-73.4,3.79,25.5,64.6,146,345.9,413.1,362.9,277.2,226.1,236.4,240.9,189.8,57.9,2586.3
32060030,PM,San Luis Cubarral,Cubarral,Meta,3,600,-73.84,3.79,109.4,170.1,304.6,599.2,622.1,558.2,440.2,375.8,398.9,503.7,521.6,231.7,4835.5
35030010,PG,El Calvario,El Calvario,Meta,3,1800,-73.71,4.35,64.9,115,145.3,340.4,417.3,446.4,523.8,436.6,279.3,221.2,167.3,79.1,3236.6
35030020,PM,Monfort,El Calvario,Meta,3,1100,-73.65,4.31,103.3,222,315.8,566.3,755.6,836,791.6,660.1,657,501.9,389.7,237.4,6036.7
32070060,PM,Fuente de Oro,Fuente de Oro,Meta,3,300,-73.63,3.47,43.3,97.3,162.4,353.8,401,373.8,315.6,226.6,219.8,285,195.1,68.6,2742.3
35010040,PM,Caño Hondo,Guamal,Meta,3,800,-73.81,3.92,99.6,166.9,319.9,593.2,664.5,623.2,486.1,396.5,465.8,497.9,508.4,239.3,5061.3
35010070,PM,Guamal,Guamal,Meta,3,525,-73.76,3.88,74.4,127.9,261.5,490.1,568.8,509.3,395.5,336.9,369.9,436.3,450.4,167.3,4188.3
35120010,PM,Puerto Gaitán,Puerto Gaitán,Meta,3,150,-72.08,4.31,8.1,45.7,99,228.1,295.3,339.9,281.7,251,240.7,199.9,129.4,35.2,2154
32070020,PM,Caño Blanco,Puerto Lleras,Meta,3,240,-73.52,3.25,30.3,73.1,174.4,335.8,341.7,365.3,266.8,227.5,193.5,258.6,192.3,64.2,2523.5
32070080,PM,Tierra Grata,Puerto Lleras,Meta,3,191,-73.23,3.09,35.5,96.4,174,311.3,349.2,391.9,303.2,248.6,200,248.6,203.9,85.3,2647.9
35010080,PM,Nare,Puerto López,Meta,3,200,-73.15,3.79,29.5,59,134.5,353.5,364.1,364.5,281.4,252.2,215.7,263.9,156.6,57.9,2532.8
32080010,PM,Puerto Rico,Puerto Rico,Meta,3,230,-73.21,2.94,34.7,90.1,168.1,342.2,401.5,348.4,305,240.1,219.8,265.3,231.5,97.1,2743.8
32070100,PM,San Juan de Arama,San Juan de Arama,Meta,3,410,-73.89,3.38,29.1,97.4,195.8,366.1,415.7,387,319.1,262.1,256.8,283.1,232.6,78.7,2923.5
35010090,PM,San Martín,San Martín,Meta,3,420,-73.7,3.75,38.2,93.1,192.1,404,511.1,395.5,338.1,267.2,282,343.2,243.1,89,3196.6
35035020,SP,Aeropuerto Vanguardia,Villavicencio,Meta,3,422,-73.62,4.16,65.2,136.5,231,520.2,675.2,541.6,460.6,399.6,410.2,495.2,424.5,186.6,4546.4
35030050,PM,Ojo De Agua,Villavicencio,Meta,3,300,-73.45,4.09,33.5,81.9,174.3,351.7,455.2,366.5,342.5,255.6,282.4,306.5,244.9,81.6,2976.6
35020060,PM,Pompeya,Villavicencio,Meta,3,260,-73.37,4.04,29.3,66.9,120.8,348.5,371.1,362.9,276,234.9,254.5,276.9,193.8,54.3,2589.9
32070010,PM,Campo Alegre,Vista Hermosa,Meta,3,260,-73.75,3.2,32.8,110.4,198.4,386.7,419,380,276.9,211.1,239.6,274.6,220.4,75,2824.9
32070040,PM,Piñalito,Vista Hermosa,Meta,3,245,-73.63,2.98,32.9,85.4,192.3,369.1,377.1,360.1,316.3,205.5,177.3,270,211.5,83.9,2681.4
52055010,SP,Aeropuerto San Luis,Aldana,Nariño,7,2961,-77.68,0.86,73.9,71.5,95.7,102.1,82.5,51.3,40.6,31.7,42.8,85.5,101.9,97.2,876.7
52040160,PM,Berruecos,Arboleda,Nariño,7,2200,-77.14,1.51,181.4,164.3,188.7,184.9,129.1,57.6,36.8,21.6,67.3,202.1,282.7,223.7,1740.3
52040060,PM,Rosal del Monte,Buesaco,Nariño,7,2568,-77.17,1.29,147.7,128.7,150.3,154.9,120.4,47.7,28,18.8,51.6,169.6,206.4,154.8,1378.8
52045020,SP,Aeropuerto Antonio Nariño,Chachagüí,Nariño,7,1796,-77.29,1.39,106.1,91.2,128,153.9,122.1,53.8,34.4,20.4,62.6,149.8,166.9,129,1218.1
52030060,PM,Campo Hidromayo,Colón Génova,Nariño,7,1820,-77.01,1.67,142.6,114,156.6,160.8,101.3,39.6,23,15.1,58.7,172.6,225.9,162,1372.3
52030020,PM,Presa Hidromayo,Colón Génova,Nariño,7,1770,-77,1.65,167.1,130.3,172.8,191.8,116.3,45,20.2,15.7,76.8,161.7,237.9,160.9,1496.5
52050110,PM,Cumbal,Cumbal,Nariño,7,3092,-77.79,0.91,67.8,77.4,98.7,110.2,96,47.6,33.9,26.9,47.1,87.8,105,107.9,906.4
53020010,PM,El Charco ,El Charco,Nariño,7,50,-78.09,2.44,341.5,278.3,268.7,354,399.9,340.2,273.8,248.7,284.3,267.4,247.1,254.4,3558.4
52050010,PM,El Peñol,El Peñol,Nariño,7,1620,-77.44,1.45,89.7,82.5,102.5,142.2,121.2,60.5,31.6,21.8,62.2,141.4,143,110.8,1109.2
52040050,PM,Aponte,El Tablón de Gómez,Nariño,7,2083,-77.03,1.4,183.8,136.5,158.5,150.8,123.5,42.7,36.1,21.5,46.3,192.5,257.4,242.3,1592
52090010,PM,Salahonda,Francisco Pizarro,Nariño,7,3,-78.66,2.04,455.3,365.2,240,389.6,584.3,516,401.7,331.4,291.5,330.9,281.3,360,4547.1
52050100,PM,Gualmatán,Gualmatán,Nariño,7,2830,-77.58,0.91,63,78.3,105.8,98.1,98.1,54.2,47.4,38.4,62.2,94.6,98.4,88.1,926.5
52050090,PM,Imués,Imués,Nariño,7,2550,-77.5,1.06,96.1,82.3,110.9,142,107.3,45.6,30.9,30.1,47.7,119.4,126.4,116,1054.6
52030090,PM,La Cruz,La Cruz,Nariño,7,2248,-76.83,1.6,150.7,116.4,142.3,146.7,99.8,35.7,30.9,17.2,46.8,173.8,209.9,181,1351.1
52030030,PM,La Unión,La Unión,Nariño,7,1745,-77.13,1.58,178.8,170.5,200.2,214.2,173.2,88.6,49.5,41.2,97.5,228.4,292.1,234.4,1968.6
52010060,PM,Mamaconde,Leiva,Nariño,7,650,-77.22,1.95,128,95.8,127.6,135.5,98.5,42.1,28.1,28.8,59.8,179,223.3,176.5,1323
52050140,PM,Vivero Linares,Linares,Nariño,7,1480,-77.53,1.35,117.3,91,146.5,160.2,120.7,61.4,45.5,33.1,69,171.1,163.4,159.2,1338.3
52050060,PM,Rio Bobo,Pasto,Nariño,7,2987,-77.3,1.1,102.1,91.3,108,120.9,113.8,72,60.5,48.6,56.1,112.2,120.7,107.1,1113.2
52010140,PM,La Guasca,Policarpa,Nariño,7,500,-77.43,1.59,58.6,39.2,62.1,78.2,53.9,18.2,14.9,9.7,31.3,95.4,103.6,69.8,634.9
52050120,PM,Puerres,Puerres,Nariño,7,2817,-77.5,0.89,85.1,70.3,95.5,102.1,96.9,78.4,84.5,61.7,50.6,87,96.3,96.5,1004.8
52050020,PM,Samaniego,Samaniego,Nariño,7,1475,-77.59,1.34,122.5,98.5,140.2,172.8,159.3,83.9,38.3,33.7,79.4,194.3,188.2,153.8,1464.9
52045040,CO,Taminango,Taminango,Nariño,7,1875,-77.27,1.55,139,189.6,167.9,216.7,164.1,81.8,56.1,37,92.9,220,243.9,168.5,1777.6
16055040,CP,Abrego - Centro Administrativo,Abrego,Norte de Santander,8,1430,-73.22,8.09,9.7,18.5,27.7,111,165.4,98.3,91,144.1,212.7,165,80.9,24.9,1149.2
16050100,PM,El Chorro ,Abrego,Norte de Santander,8,1498,-73.18,8.02,14.4,21.5,71.3,159.3,209.4,86,76,135.6,240.9,223.2,134.9,36.2,1408.7
16010020,PM,La Donjuana 2,Bochalema,Norte de Santander,8,770,-72.6,7.7,42.6,66.7,81.2,125.4,107.5,48.1,64.4,73,110.6,193,178,103.2,1193.7
23190540,PM,La Vega,Cáchira,Norte de Santander,8,710,-73.18,7.65,57.6,62.7,128.3,186.5,225.4,103.6,94.3,141,204.6,281.4,203.4,89.4,1778.2
37010030,PM,Cácota,Cácota,Norte de Santander,8,2645,-72.64,7.27,8.2,17.9,28.7,65.6,76.5,103.1,100.5,95.7,74.8,60.4,37.1,15.3,683.8
37010020,PM,Chitagá,Chitagá,Norte de Santander,8,2410,-72.66,7.14,13.3,29.3,41.1,76.4,111.8,161.9,165.2,121.3,89.3,85.4,49.7,23.1,967.8
16015010,SP,Aeropuerto Camilo Daza,Cúcuta,Norte de Santander,8,250,-72.51,7.93,51.2,42.8,68.3,114.1,85.6,40,39.2,46.1,63.6,137.6,131.7,80.7,900.9
16020130,PM,Barrancas,Cúcuta,Norte de Santander,8,74,-72.53,8.25,120.5,114.3,136.6,261.4,271,115.1,130.8,153.6,283.9,371.1,307.1,234.7,2500.1
16010060,PM,La Jarra ,Cúcuta,Norte de Santander,8,87,-72.43,8.2,161.7,117.8,145.7,285.6,243.8,127.2,141.6,174.8,254.8,387.7,325.8,273.4,2639.9
16010040,PM,Santa Rita,Cúcuta,Norte de Santander,8,72,-72.37,8.19,136.1,115.1,174,278.8,244,116.7,174.5,223.3,249,355.3,291.4,247.3,2605.5
16020080,PM,Cucutilla,Cucutilla,Norte de Santander,8,1280,-72.77,7.53,80.9,91.2,121.4,214.9,199,89.9,80.2,140.8,195.5,306.5,258.2,137.1,1915.6
23190510,PM,El Caobo,La Esperanza,Norte de Santander,8,300,-73.33,7.6,77.4,116.7,188.2,273.9,257.3,146.7,129.7,158.7,203.3,312.8,253.6,179.8,2298.1
16020110,PM,La Caldera,Mutiscua,Norte de Santander,8,2875,-72.72,7.32,34.5,47.4,67.6,138.6,140.9,122.1,130.9,112.6,143.9,163.6,113.2,51.5,1266.8
16015020,AM,Iser Pamplona,Pamplona,Norte de Santander,8,2340,-72.65,7.37,32,32.8,67.8,108.9,107,67.2,57.7,68.9,103.5,134.9,95.2,42.7,918.6
16015030,CO,La Esperanza,Ragonvalia,Norte de Santander,8,1760,-72.53,7.57,48.8,45.6,76.2,151.1,160.1,124,119.4,143.4,187.7,232.5,172.8,80.4,1542
16035030,CO,Sardinata,Sardinata,Norte de Santander,8,320,-72.8,8.08,85.3,95.3,131.7,176.5,142.7,61.3,56.2,121.4,191.3,265.6,237.6,142.8,1707.7
37010080,PM,Los Rincón,Silos,Norte de Santander,8,2650,-72.71,7.2,20.6,24.8,49.6,64,84.3,74.3,68.4,75,75.7,83.7,55.5,23.1,699
37015010,CO,Silos,Silos,Norte de Santander,8,2765,-72.75,7.21,15.8,24.9,45.5,87.8,107.5,92,90.2,89.7,97,109.6,61.9,30.8,852.7
16060010,PM,Campo La Raya,Tibú,Norte de Santander,8,75,-72.79,8.83,141.8,137,184.5,447.8,448.8,261.3,319,314,449.5,515.7,467.5,311.6,3998.5
16070040,PM,Orú,Tibú,Norte de Santander,8,150,-72.91,8.64,124.7,186.2,240.6,511.4,422.9,295.6,347.5,370,437.8,508.1,518.1,363,4325.9
16070010,PM,Puerto Barco,Tibú,Norte de Santander,8,50,-72.9,9,137.1,130.6,175,465.6,581.2,416.9,399.5,486,543.4,764.9,672.8,373.5,5146.5
37020030,PM,Campo Hermoso,Toledo,Norte de Santander,8,1660,-72.3,7.1,185.8,290.2,348.4,460.1,590.2,838.1,722.5,589.6,507.3,352.9,267.2,205.2,5357.5
37035010,CO,Tunebia,Toledo,Norte de Santander,8,370,-72.12,7.01,155.4,206.7,228.5,373.5,561.4,656,635.8,645.1,512.4,432.1,327.6,228.2,4962.7
16010010,PM,Villa del Rosario,Villa del Rosario,Norte de Santander,8,431,-72.48,7.82,46.2,47.8,58.5,89.7,82.9,36.4,34.2,37.6,63.3,129.9,111.3,80.6,818.4
44010030,PM,Campucana,Mocoa,Putumayo,7,1400,-76.68,1.2,200.9,220.2,253.4,398.2,505.7,527.2,502.3,371.5,304.2,265.9,232.4,201.5,3983.4
44010090,PM,Condagua,Mocoa,Putumayo,7,500,-76.58,1.28,183.3,203.6,240.7,334.7,369,379,361.5,278.2,242.2,231.2,226,202,3251.5
47010110,PM,Puerto Caicedo,Puerto Caicedo,Putumayo,7,300,-76.61,0.69,227,279,322,420,431.4,353.7,284,277.7,259.7,303.9,357.8,285.1,3801.3
44010080,PM,Santa Lucia,Puerto Guzmán,Putumayo,7,500,-76.44,0.96,285.2,355.4,422.3,569.9,541.9,503.4,437.2,354.1,314.2,410.8,450.2,330.6,4975
47010050,PM,Chungacaspi,San Francisco,Putumayo,7,2100,-76.93,1.13,99.9,122.3,143.4,189.6,257.3,369.9,430.4,297.8,168.4,115.8,114.3,101.5,2410.8
47010090,PM,San Francisco,San Francisco,Putumayo,7,2140,-76.88,1.18,107,136.2,148,208.9,216,262.2,281.7,191.1,145.4,111.5,113.3,114.8,2036
47010180,PM,Torre Tv San Francisco,San Francisco,Putumayo,7,3000,-76.85,1.15,207.9,234.9,321.8,375.9,495.9,650,737.4,521.2,312.8,250.1,216.1,207.9,4531.8
26120170,PM,Pijao,Pijao,Quindío,9,1685,-75.71,4.33,207.4,166.2,228.5,245,217.1,98.3,77.9,71.7,139.6,285.1,365.8,245.3,2347.9
26125060,SP,Aeropuerto El Edén,Armenia,Quindío,9,1229,-75.77,4.45,136.1,144.2,194.1,262.6,219.1,153.1,105.2,98,182.9,253.5,262.6,177.1,2188.5
26140090,PM,Taparcal,Belén de Umbría,Risaralda,9,1609,-75.86,5.17,121.2,129.8,187.8,243.5,263.4,189.5,156.6,149.1,195.5,265,276,177,2354.4
26140110,PM,San Clemente,Guática,Risaralda,9,2173,-75.79,5.32,122.3,120.8,179.1,265.4,240.3,164.7,180.4,156.4,251.1,275.8,215.7,162.4,2334.4
26140180,PM,La Virginia -Alerta,La Virginia,Risaralda,9,922,-75.88,4.89,98,102.8,183,201.4,245.2,164.2,128,112.7,158.3,188.1,214.8,133.1,1929.6
26130200,PM,El Recuerdo,Marsella,Risaralda,9,1587,-75.74,4.96,151.9,141,225.7,291.9,275.9,222.9,212.3,163.5,221.5,243.9,260.5,185.3,2596.3
26140120,PM,Mistrató,Mistrató,Risaralda,9,1483,-75.87,5.29,78.9,90.2,112.5,182.6,177,123.1,121.5,119.2,149.6,167.4,152.5,92.7,1567.2
26135040,SP,Aeropuerto Matecaña,Pereira,Risaralda,9,1199,-75.74,4.82,132.6,132.6,220.7,249.3,257.4,196.1,133.5,126.2,194.9,288.7,291.1,201.4,2424.5
26130220,PM,Maracay,Pereira,Risaralda,9,1172,-75.84,4.81,112.6,123.8,184.6,221.2,220.4,132.7,127.1,113.4,164.1,221.2,226.3,142.1,1989.5
26130180,PM,San Isidro,Pereira,Risaralda,9,1196,-75.86,4.8,101.6,121.9,167.8,209.2,202.3,133.1,123.4,103.3,151.6,211.9,211.2,126.4,1863.7
26170260,PM,Guerrerito,Quinchía,Risaralda,9,797,-75.66,5.28,99.3,97.1,142.5,205,231.2,164.3,103.6,130.4,206.1,222.8,199.5,152.4,1954.2
26130170,PM,Potreros,Santa Rosa de Cabal,Risaralda,9,2134,-75.56,4.89,167,168,215.4,269.8,230.5,164.9,118.7,129.3,172.4,320.7,312.1,221.5,2490.3
26130020,PM,Termales,Santa Rosa de Cabal,Risaralda,9,1935,-75.56,4.84,174.8,175,247.1,298.9,273.3,195.8,131.5,153,218,336.6,291,231.3,2726.3
17015010,SP,Aeropuerto Sesquicentenario,Isla de San Andrés,"Archipiélago de San Andrés, Providencia y Sta Cat.",11,1,-81.73,12.54,84.4,38.4,24.6,25.7,152.6,228.9,192.8,205.1,237.8,338.4,287.1,146.1,1961.9
24060060,PM,Puente La Paz,  Girón,Santander,8,180,-73.42,7.11,130.4,183.1,263.1,342.9,340.3,193.2,156,180.4,313,442.4,387.5,212.7,3145
24040050,PM,Santa Isabel,Barichara,Santander,8,1300,-73.2,6.64,31.5,49.7,73.5,119.1,143.5,89.6,93.6,104.1,127.3,155.1,82.9,43.3,1113.2
23155030,SP,Aeropuerto Yariguies,Barrancabermeja,Santander,8,126,-73.81,7.03,51.9,126.5,184,299.9,366.7,268.1,229.8,287.6,336.1,405.4,304.4,131,2991.4
23130010,PM,Chucurí,Barrancabermeja,Santander,8,100,-74.03,6.88,60.4,99.1,229.8,295.6,361.7,252.2,229.5,324.8,381.5,382.9,297.6,146.5,3061.6
23190590,PG,La Floresta ,Bucaramanga,Santander,8,925,-73.12,7.09,70.1,100.2,127.5,120,142.4,98.3,109.9,108.8,123.9,132.6,111.4,52.8,1297.9
24040060,PM,Remolino,Cabrera,Santander,8,630,-73.28,6.61,35.9,54.4,86.3,166.2,166,100.4,117.1,138,173.3,218.3,142.5,45.7,1444.1
24035260,CO,Capitanejo,Capitanejo,Santander,6,1160,-72.7,6.52,13.2,24.8,53.4,91,103.6,61.3,48,63.8,97.7,129.4,58.1,23.1,767.4
24030320,PM,Carcasí,Carcasí,Santander,8,1976,-72.63,6.63,34.2,59.3,99.7,223,206.2,109.1,85.6,114.2,173.9,229,147.1,44.2,1525.5
24030680,PG,El Páramo,Carcasí,Santander,8,2394,-72.59,6.65,35.1,40.5,78.3,134.9,150.4,99.3,81.8,94.2,130.2,165.8,99.3,44.8,1154.6
24030300,PM,Cepita,Cepitá,Santander,8,600,-72.98,6.75,33.6,44.1,72.5,83.9,103.5,68.1,94.1,71.3,108,116.7,91.1,38.7,925.6
24030210,PM,Cerrito,Cerrito,Santander,8,2440,-72.7,6.84,29.2,45.4,85.8,139.9,138.5,82.9,70.6,96.8,136.7,162,116.1,51.3,1155.2
24025050,CO,Charalá,Charalá,Santander,8,1350,-73.15,6.27,103.3,174.4,219.1,303.4,281.4,189.8,163.4,213,262.3,353.9,263.2,149.4,2676.6
24015260,CO,Chima,Chima,Santander,8,1090,-73.37,6.36,102.9,169.6,233,344.3,358,197.9,228.9,257.3,315.9,381.9,302.1,176.8,3068.6
23120010,PM,La Verde ,Cimitarra,Santander,8,140,-73.9,6.41,140.3,192.5,288.7,374.1,373.5,269.5,217.1,257.4,361.1,459.7,445.7,215.1,3594.7
23120200,PM,Puerto Araujo Alertas,Cimitarra,Santander,8,118,-74.08,6.53,71.2,110.5,203,274.5,336.7,229.8,221.8,250,324,423.6,311.8,140.7,2897.6
37010050,PM,Tabeta,Concepción,Santander,8,3168,-72.56,6.81,20.7,38,57.2,110.6,153.3,189.6,192.2,171,153.3,142.2,81.2,35.7,1345
24010230,PM,Confines,Confines,Santander,8,1523,-73.24,6.36,70.4,129.3,197.3,325.1,330.7,225.7,223.4,235.8,304.8,331.5,214.7,92,2680.7
24020120,PM,Coromoro,Coromoro,Santander,8,1520,-73.04,6.3,118.6,157.7,215.7,340.6,303.4,180.4,138.3,164.3,230.4,351.2,282.9,194.6,2678.1
24020220,PM,Las Pavas,Coromoro,Santander,8,2625,-72.96,6.15,132.3,157.1,233.7,259.2,205.1,75.3,63.6,78.3,155,277.8,247.6,147.4,2032.4
24020130,PM,Curití 2,Curití,Santander,8,1626,-73.06,6.6,21.4,44.7,70.9,154.7,187.5,177.1,181.2,169.6,160.5,174.7,88.8,33.4,1464.5
23140070,PM,Hacienda Dos Bocas,El Carmen de Chucurí,Santander,8,183,-73.62,6.77,114.8,176.3,239.4,286.2,262.5,181.7,155.3,169.3,250.7,303.7,275.8,163.9,2579.6
23190140,PM,El Playón,El Playón,Santander,8,500,-73.2,7.46,83.8,104.9,151.5,207.4,209,134.4,126,159.9,190.5,255.2,216.7,124.3,1963.6
24020040,PG,Encino,Encino,Santander,8,1814,-73.1,6.14,216.7,258.8,349,381.6,304.1,139.8,116.2,135.6,241.3,383.3,413.3,281.2,3220.9
24010850,PM,La Palma ,Gámbita,Santander,6,2100,-73.38,5.87,118.1,151.7,247.5,325.3,290.4,162.5,114.1,144,210.7,321.7,265.1,166,2517.1
23190600,PM,El Pantano,Girón,Santander,8,1280,-73.23,7,48.4,63.1,93.2,97.7,109.7,66.4,67.4,77.2,98.8,126.9,106.4,39.4,994.6
24060070,PG,La Parroquia,Girón,Santander,8,267,-73.33,7.08,16.7,30.8,53.8,146.4,190.3,152.6,126.1,152.1,196.6,161.6,110.5,49,1386.5
23195110,CO,Llano Grande,Girón,Santander,8,777,-73.17,7.03,38.6,74.4,107.2,98.3,102.1,71.7,71.2,75.7,91.7,119.6,83.9,23.7,958.1
24030630,PM,Baraya,Guaca,Santander,8,2927,-72.82,6.96,88.5,133.3,180.5,168.1,172.8,69.7,89.9,92.9,163.2,229.6,209.1,97.5,1695.1
37010060,PM,El Portillo,Guaca,Santander,8,3824,-72.8,7.03,36.6,56.2,80.6,144,165.8,145.6,163,174.1,142.4,157.7,97.9,43.4,1407.3
24015250,CO,La Laja,Guadalupe,Santander,8,1400,-73.42,6.24,119,165.8,224.4,357.8,369.8,275.5,270.6,284.7,324.6,406.2,342.6,196.7,3337.7
23120220,PM,La Pradera ,Jesús María,Santander,8,2590,-73.91,5.87,54,94.1,138.5,227.4,272.9,209.3,180,169.5,221.2,245.5,176.8,107.8,2097
23125130,PG,Landázuri,Landázuri,Santander,8,1085,-73.81,6.22,112.8,163.7,207.9,299.8,348.6,317.2,255.9,250.9,315.3,349.4,293,182.9,3097.4
23195130,SP,Aeropuerto Palonegro,Lebrija,Santander,8,1189,-73.18,7.12,61.1,90.4,122.3,123.9,122.8,75.1,84.9,77.4,100.8,149,121.5,60.9,1190.1
23190440,PM,El Naranjo ,Lebrija,Santander,8,825,-73.3,7.21,75.4,113.3,180.3,233.4,229.3,130.4,95.5,113.1,182.6,267.8,234.3,122.8,1978.2
23190380,PM,Palmas,Lebrija,Santander,8,855,-73.22,7.21,68.7,108,154,128.8,141.6,78,66.4,76.7,111.5,179.6,192.2,84,1389.5
24060050,PM,La Mesa,Los Santos,Santander,8,1460,-73.09,6.76,24.9,46.8,61.8,88.6,125.1,76.4,79.8,83.9,110.7,128.3,78.6,34.3,939.2
24030290,PM,Macaravita,Macaravita,Santander,6,1856,-72.58,6.49,30.9,46.6,73.4,120.6,136.8,83.1,67.1,76,119.4,161.2,112.3,46.1,1073.5
23190340,PM,Matajira,Matanza,Santander,8,996,-73.06,7.21,39.3,57.2,83.2,105.3,111.1,65.8,40.3,59.3,96,133.1,100.4,38.7,929.7
24025040,CP,Escuela Agrícola Mogotes,Mogotes,Santander,8,1673,-72.97,6.47,67.1,113.7,155.4,294.9,346.4,264.6,248.7,298.4,293.5,333.6,222.5,122.4,2761.2
24030340,PM,Molagavita,Molagavita,Santander,8,2150,-72.81,6.67,42.2,81.1,121.9,199.5,238.4,142,113.2,146.2,227.8,275.1,174.7,75.4,1837.5
24010240,PM,Oiba,Oiba,Santander,8,1400,-73.3,6.26,110.7,161.3,235.6,339.8,341.1,238.6,259.3,270.3,287.1,403.5,267.1,153,3067.4
24030850,PM,El Aserrio ,Onzaga,Santander,6,2913,-72.78,6.23,67.3,106.8,162.1,235.6,195.2,81.6,65.4,82.9,144.1,247.5,169.8,97.7,1656
24030370,PG,Susa,Onzaga,Santander,6,3080,-72.83,6.19,63.5,84.7,135.3,174.4,143.1,55.5,57.3,50.6,108,166.6,134.2,86.9,1260.1
23190700,PG,Granja Piedecuesta ,Piedecuesta,Santander,8,1000,-73.07,6.99,90.8,108.1,170.7,140,169,97.4,97.3,97,142,180.5,141.9,76.5,1511.2
24025020,PM,El Cucharo,Pinchote,Santander,8,975,-73.2,6.53,27.4,59.8,83,153.7,162.6,112.1,110.5,122.4,151.4,177.8,114.8,42.3,1317.8
23180120,PM,La Coquera,Puerto Wilches,Santander,8,170,-73.92,7.22,34.8,83.4,165.1,265.6,340,289.4,275,305.9,351.6,405,264.4,114.4,2894.6
23180100,PM,Nuevo Sitio ,Puerto Wilches,Santander,8,98,-73.8,7.78,12,27.5,63,189.9,309.9,272.6,265.7,275.2,267.4,298.1,189.6,52.6,2223.5
23180110,PM,Paturia,Puerto Wilches,Santander,8,105,-73.83,7.59,20.6,57.2,132.4,275.5,407.9,324.2,296.7,334.5,325.9,357.1,272.8,71.2,2876
23190350,PM,Llano de Palmas,Rionegro,Santander,8,778,-73.2,7.24,81.9,112.2,154,140.8,134.6,72.5,78.1,82.8,123.6,199.1,183.2,91.4,1454.2
23190460,PM,Papayal,Rionegro,Santander,8,100,-73.65,7.62,29.4,50.4,129.1,272.1,345,239.2,266.4,279.9,319.3,381,282.6,90,2684.4
23190360,PM,Portachuelo,Rionegro,Santander,8,800,-73.17,7.33,127.7,152.6,224.2,198.2,198.8,88.4,104.8,114.7,165.1,231.6,234.8,154,1994.9
24060040,PM,Aguasclaras,Sabana de Torres,Santander,8,132,-73.55,7.26,85.3,118.4,245.7,340.3,358.9,257.2,269.4,320.5,354.4,444.7,327.8,153.1,3275.7
23180050,PM,El Establo ,Sabana de Torres,Santander,8,98,-73.6,7.54,36.3,68.6,139,317.2,346.6,243.8,227.6,260.1,302.8,372.3,275.5,99.2,2689
23180040,PM,El Porvenir,Sabana de Torres,Santander,8,110,-73.48,7.45,50.8,93.1,168.3,300.3,332.7,220.3,184.8,279.1,274,419.9,299.6,143.2,2766.1
23180080,PM,Eloy Valenzuela,Sabana de Torres,Santander,8,132,-73.68,7.49,24.7,74.8,150.4,282.8,318.2,226.4,221.3,266.7,309.6,322.2,242.1,84.9,2524.1
24060080,PM,Payoa 5,Sabana de Torres,Santander,8,161,-73.49,7.27,82.6,151.4,276.7,341.5,320,232.7,230.6,313.4,342.4,456.7,338,175.6,3261.6
23180070,PM,Sabana de Torres,Sabana de Torres,Santander,8,144,-73.49,7.39,64.5,118,231.7,353.9,363.5,286.3,233,280.1,324.6,462.6,329.2,158.2,3205.6
23190560,PM,San Rafael,Sabana de Torres,Santander,8,84,-73.56,7.57,41.2,68.5,149.1,309.1,357.1,260.1,230.1,270.2,317.1,365.9,262.3,97.1,2727.8
23185010,CP,Villa Leiva,Sabana de Torres,Santander,8,89,-73.54,7.46,39.8,88.2,179.7,284.4,305,232.9,203.7,266.9,294.5,407,294.5,119.3,2715.9
24030270,PM,San Andrés,San Andrés,Santander,8,1702,-72.84,6.83,54.2,74.6,95.3,160.9,182,100.9,69,98.6,173.9,228.7,137.3,74.1,1449.5
24030200,PM,San Joaquín,San Joaquín,Santander,6,2000,-72.87,6.43,52.4,91.7,154.7,238.8,210.6,118.4,109.5,119.9,163.8,235.6,193.7,80.7,1769.8
24050110,PM,Albania,San Vicente de Chucurí,Santander,8,216,-73.63,6.91,86.5,148.3,208.8,282.9,205.8,151.5,146.2,155.2,249.6,293.7,244.1,130.7,2303.3
24050070,PM,La Putana,San Vicente de Chucurí,Santander,8,150,-73.52,7.13,76.3,134,248.6,337,318.2,235.3,200.1,278,364.9,427.1,320.4,204.5,3144.4
24050060,PM,San Vicente,San Vicente de Chucurí,Santander,8,721,-73.41,6.87,101.4,147.7,200.7,206.1,211.6,137.8,134.4,146.8,192.4,259,192.4,93.6,2023.9
24030330,PM,El Tope,Santa Bárbara,Santander,8,2050,-72.93,6.94,34,64.5,85.2,135.7,182.5,138.1,125.2,148.2,195.2,192.5,124.5,64.4,1490
23140040,PM,Puente Ferrocarril,Simacota,Santander,8,90,-73.94,6.77,73.6,88.1,206.1,252.2,320.5,215.7,200.5,243.3,339.1,390.4,299.1,142.7,2771.3
24010660,PM,Simacota,Simacota,Santander,8,1050,-73.33,6.44,90.1,166.5,204.8,360.9,363.6,213.8,232.1,263.7,346,409.9,284.3,136,3071.7
24010650,PM,Olival,Suaita,Santander,8,1502,-73.34,6.15,110.3,151.2,219.3,374.6,398.2,283,288.4,289.8,329.7,421.9,345.8,211.7,3423.9
24010760,PM,Suaita,Suaita,Santander,8,1660,-73.44,6.1,84.2,85.4,168.3,240.2,305.8,246.5,209.6,203.9,257.1,298.9,220,111.9,2431.8
24010670,PM,Sucre,Sucre,Santander,8,2270,-73.8,5.92,78.8,122.6,202.5,332.5,346,211.7,211,209.6,276.8,338.8,269.9,167.7,2767.9
37015020,CP,Berlín Automática,Tona,Santander,8,3214,-72.87,7.19,13.9,23.7,39.5,73.5,88.6,60.9,57.4,65.1,93,99.8,56.3,18.9,690.6
23190300,PM,El Picacho,Tona,Santander,8,3310,-72.97,7.11,31.6,61.9,79.9,192.8,221,135.1,106,148.8,190.1,195.6,135.5,46.1,1544.4
23190130,PM,Tona,Tona,Santander,8,1910,-72.97,7.2,66,84.9,141.9,223.8,191.1,52.9,34.3,63.9,127.6,213.3,181.5,89.6,1470.8
24020080,PM,Valle de San José,Valle de San José,Santander,8,1300,-73.14,6.44,33.7,66.8,107.3,197.1,241,210.3,201.1,216.2,219.8,230.1,152.7,49.5,1925.6
24015270,PM,Granja Vélez ,Vélez,Santander,8,2170,-73.67,6,57.6,81.2,134.1,242.7,272.1,193.6,171.4,172,222.8,263.7,185.1,83.6,2079.9
23190450,PM,Vetas-El Pozo,Vélez,Santander,8,3220,-72.88,7.31,23.5,34.7,59.3,136.7,121.7,61.9,44.9,69,106.3,128.5,93.4,33.7,913.6
24050100,PM,La Fuente,Zapatoca,Santander,8,815,-73.28,6.71,43.2,51.8,79.8,148.3,177.4,115.4,116.7,119.2,188.6,226.8,158.8,47.5,1473.5
24055030,CO,Zapatoca,Zapatoca,Santander,8,1810,-73.28,6.79,30.3,39.9,75.3,133.3,156,108.9,97.4,116.4,161.4,176.3,116.4,51.5,1263.1
25020990,PM,Hato Nuevo,Corozal,Sucre,2,80,-75.19,9.18,25.9,33.3,38.2,106.8,197.7,172,190.4,217.4,214.7,199.6,114.6,40,1550.6
25020190,PM,Puerto Asís,Los Palmitos,Sucre,2,200,-75.13,9.43,25,32.2,48,107.6,153.6,158.4,107.1,139.9,137.6,131.8,81.8,42.4,1165.4
25020820,PM,Zapata,Majagual,Sucre,2,50,-74.7,8.6,13.7,20.3,58.4,152.6,292.2,320.9,355.1,369.6,281.5,361,291.2,79,2595.5
